{"metaData":[{"name":"VILLAGE_ID"},{"name":"CODE"},{"name":"NAME"},{"name":"TYPE"},{"name":"ADDRESS"},{"name":"X"},{"name":"Y"},{"name":"LNG"},{"name":"LAT"},{"name":"BOUNDS"},{"name":"MEMO"},{"name":"HOUSEHOLDS"},{"name":"IS_VALID"},{"name":"SOURCE"},{"name":"CREATE_DATE"},{"name":"COMMUNITY_ID"},{"name":"COUNTY_ID"}],"rows":[{"VILLAGE_ID":{"type":"Buffer","data":[215,145,107,213,17,120,75,205,191,28,130,2,222,210,59,201]},"CODE":"B0FFJO9FCV","NAME":"江南福郡","TYPE":"商务住宅;住宅区;住宅小区","ADDRESS":"爱工北街36号7-8门","X":123.379837,"Y":41.791633,"LNG":123.379837,"LAT":41.791633,"BOUNDS":null,"MEMO":null,"HOUSEHOLDS":null,"IS_VALID":1,"SOURCE":"高德","CREATE_DATE":"2019-12-11T02:16:33.000Z","COMMUNITY_ID":null,"COUNTY_ID":{"type":"Buffer","data":[107,103,12,242,177,1,64,144,172,68,191,108,188,227,101,85]}},{"VILLAGE_ID":{"type":"Buffer","data":[62,43,231,59,212,72,69,188,191,199,107,175,227,175,59,4]},"CODE":"B0FFJ2JSPZ","NAME":"盛世嘉园","TYPE":"商务住宅;住宅区;住宅小区","ADDRESS":"景星北街36-1号19门","X":123.372216,"Y":41.807337,"LNG":123.372216,"LAT":41.807337,"BOUNDS":null,"MEMO":null,"HOUSEHOLDS":null,"IS_VALID":1,"SOURCE":"高德","CREATE_DATE":"2019-12-11T02:16:33.000Z","COMMUNITY_ID":null,"COUNTY_ID":{"type":"Buffer","data":[107,103,12,242,177,1,64,144,172,68,191,108,188,227,101,85]}},{"VILLAGE_ID":{"type":"Buffer","data":[169,66,234,21,95,114,76,112,169,236,72,38,131,228,139,35]},"CODE":"B0FFH0LY1Y","NAME":"沈辽东路社区","TYPE":"商务住宅;住宅区;住宅小区","ADDRESS":"凌空二街5甲1e号附近","X":123.379306,"Y":41.78069,"LNG":123.379306,"LAT":41.78069,"BOUNDS":null,"MEMO":null,"HOUSEHOLDS":null,"IS_VALID":1,"SOURCE":"高德","CREATE_DATE":"2019-12-11T02:16:33.000Z","COMMUNITY_ID":null,"COUNTY_ID":{"type":"Buffer","data":[107,103,12,242,177,1,64,144,172,68,191,108,188,227,101,85]}},{"VILLAGE_ID":{"type":"Buffer","data":[101,151,35,51,127,212,68,43,129,42,112,255,19,191,170,9]},"CODE":"B0FFLEKC58","NAME":"光明佳园","TYPE":"商务住宅;住宅区;住宅小区","ADDRESS":null,"X":123.38977299999999,"Y":41.813573,"LNG":123.38977299999999,"LAT":41.813573,"BOUNDS":null,"MEMO":null,"HOUSEHOLDS":null,"IS_VALID":1,"SOURCE":"高德","CREATE_DATE":"2019-12-11T02:16:33.000Z","COMMUNITY_ID":null,"COUNTY_ID":{"type":"Buffer","data":[107,103,12,242,177,1,64,144,172,68,191,108,188,227,101,85]}},{"VILLAGE_ID":{"type":"Buffer","data":[67,89,131,120,177,104,78,37,164,244,110,97,141,36,6,254]},"CODE":"B0FFI3Q2V1","NAME":"笃工社区","TYPE":"商务住宅;住宅区;住宅小区","ADDRESS":"北一中路12号4门","X":123.379277,"Y":41.815576,"LNG":123.379277,"LAT":41.815576,"BOUNDS":null,"MEMO":null,"HOUSEHOLDS":null,"IS_VALID":1,"SOURCE":"高德","CREATE_DATE":"2019-12-11T02:16:33.000Z","COMMUNITY_ID":null,"COUNTY_ID":{"type":"Buffer","data":[107,103,12,242,177,1,64,144,172,68,191,108,188,227,101,85]}},{"VILLAGE_ID":{"type":"Buffer","data":[54,237,105,143,219,49,66,170,186,197,89,148,10,140,161,25]},"CODE":"B0FFHJD0EC","NAME":"庞大学成公寓","TYPE":"商务住宅;住宅区;住宅小区","ADDRESS":"沈辽路","X":123.239277,"Y":41.740933999999996,"LNG":123.239277,"LAT":41.740933999999996,"BOUNDS":null,"MEMO":null,"HOUSEHOLDS":null,"IS_VALID":1,"SOURCE":"高德","CREATE_DATE":"2019-12-11T02:16:33.000Z","COMMUNITY_ID":null,"COUNTY_ID":{"type":"Buffer","data":[107,103,12,242,177,1,64,144,172,68,191,108,188,227,101,85]}},{"VILLAGE_ID":{"type":"Buffer","data":[193,108,43,41,145,244,72,255,141,202,97,77,177,56,9,32]},"CODE":"B0FFK9CD72","NAME":"职工休息室","TYPE":"商务住宅;住宅区;住宅小区","ADDRESS":"安工街与小五路交叉口西南50米","X":123.373309,"Y":41.7914,"LNG":123.373309,"LAT":41.7914,"BOUNDS":null,"MEMO":null,"HOUSEHOLDS":null,"IS_VALID":1,"SOURCE":"高德","CREATE_DATE":"2019-12-11T02:16:33.000Z","COMMUNITY_ID":null,"COUNTY_ID":{"type":"Buffer","data":[107,103,12,242,177,1,64,144,172,68,191,108,188,227,101,85]}},{"VILLAGE_ID":{"type":"Buffer","data":[178,86,98,220,151,191,69,131,177,230,43,110,96,37,203,247]},"CODE":"B001809196","NAME":"郭家五小区","TYPE":"商务住宅;住宅区;住宅小区","ADDRESS":"壮工街10号321","X":123.321011,"Y":41.783702999999996,"LNG":123.321011,"LAT":41.783702999999996,"BOUNDS":null,"MEMO":null,"HOUSEHOLDS":null,"IS_VALID":1,"SOURCE":"高德","CREATE_DATE":"2019-12-11T02:16:33.000Z","COMMUNITY_ID":null,"COUNTY_ID":{"type":"Buffer","data":[107,103,12,242,177,1,64,144,172,68,191,108,188,227,101,85]}},{"VILLAGE_ID":{"type":"Buffer","data":[29,208,134,64,159,226,64,87,133,58,55,61,216,30,125,229]},"CODE":"B0FFI8PAEZ","NAME":"水木融城","TYPE":"商务住宅;住宅区;住宅小区","ADDRESS":"开发二十二号路与浑河十街交叉口北100米","X":123.25009299999999,"Y":41.729597999999996,"LNG":123.25009299999999,"LAT":41.729597999999996,"BOUNDS":null,"MEMO":null,"HOUSEHOLDS":null,"IS_VALID":1,"SOURCE":"高德","CREATE_DATE":"2019-12-11T02:16:33.000Z","COMMUNITY_ID":null,"COUNTY_ID":{"type":"Buffer","data":[107,103,12,242,177,1,64,144,172,68,191,108,188,227,101,85]}},{"VILLAGE_ID":{"type":"Buffer","data":[138,167,17,239,166,140,68,214,140,46,198,145,161,219,52,153]},"CODE":"B0FFKR5OES","NAME":"记忆空间文化智能社区","TYPE":"商务住宅;住宅区;住宅小区","ADDRESS":"凌空一街49号7号1门附近","X":123.379931,"Y":41.7746,"LNG":123.379931,"LAT":41.7746,"BOUNDS":null,"MEMO":null,"HOUSEHOLDS":null,"IS_VALID":1,"SOURCE":"高德","CREATE_DATE":"2019-12-11T02:16:33.000Z","COMMUNITY_ID":null,"COUNTY_ID":{"type":"Buffer","data":[107,103,12,242,177,1,64,144,172,68,191,108,188,227,101,85]}},{"VILLAGE_ID":{"type":"Buffer","data":[33,228,171,161,164,39,71,170,172,16,106,78,202,139,209,110]},"CODE":"B0FFK9NKOD","NAME":"勋望南社区","TYPE":"商务住宅;住宅区;住宅小区","ADDRESS":"兴华南街40号东北方向194米","X":123.363075,"Y":41.786294999999996,"LNG":123.363075,"LAT":41.786294999999996,"BOUNDS":null,"MEMO":null,"HOUSEHOLDS":null,"IS_VALID":1,"SOURCE":"高德","CREATE_DATE":"2019-12-11T02:16:33.000Z","COMMUNITY_ID":null,"COUNTY_ID":{"type":"Buffer","data":[107,103,12,242,177,1,64,144,172,68,191,108,188,227,101,85]}},{"VILLAGE_ID":{"type":"Buffer","data":[47,63,235,94,215,244,78,65,149,227,109,113,57,153,111,165]},"CODE":"B0FFJ49D9U","NAME":"和颂安居家园","TYPE":"商务住宅;住宅区;住宅小区","ADDRESS":"北四中路北50米","X":123.357018,"Y":41.805496999999995,"LNG":123.357018,"LAT":41.805496999999995,"BOUNDS":null,"MEMO":null,"HOUSEHOLDS":null,"IS_VALID":1,"SOURCE":"高德","CREATE_DATE":"2019-12-11T02:16:33.000Z","COMMUNITY_ID":null,"COUNTY_ID":{"type":"Buffer","data":[107,103,12,242,177,1,64,144,172,68,191,108,188,227,101,85]}},{"VILLAGE_ID":{"type":"Buffer","data":[65,137,60,81,66,254,77,22,138,121,71,187,226,194,90,92]},"CODE":"B0FFGMJ5EB","NAME":"腾飞社区","TYPE":"商务住宅;住宅区;住宅小区","ADDRESS":"南滑翔路14号","X":123.36370099999999,"Y":41.769265999999995,"LNG":123.36370099999999,"LAT":41.769265999999995,"BOUNDS":null,"MEMO":null,"HOUSEHOLDS":null,"IS_VALID":1,"SOURCE":"高德","CREATE_DATE":"2019-12-11T02:16:33.000Z","COMMUNITY_ID":null,"COUNTY_ID":{"type":"Buffer","data":[107,103,12,242,177,1,64,144,172,68,191,108,188,227,101,85]}},{"VILLAGE_ID":{"type":"Buffer","data":[219,68,164,5,246,154,73,245,129,254,229,176,241,21,49,237]},"CODE":"B0FFI2OSY0","NAME":"滑翔小区","TYPE":"商务住宅;住宅区;住宅小区","ADDRESS":"北滑翔路12号","X":123.368707,"Y":41.775081,"LNG":123.368707,"LAT":41.775081,"BOUNDS":null,"MEMO":null,"HOUSEHOLDS":null,"IS_VALID":1,"SOURCE":"高德","CREATE_DATE":"2019-12-11T02:16:33.000Z","COMMUNITY_ID":null,"COUNTY_ID":{"type":"Buffer","data":[107,103,12,242,177,1,64,144,172,68,191,108,188,227,101,85]}},{"VILLAGE_ID":{"type":"Buffer","data":[142,210,133,45,247,228,78,26,159,123,66,147,170,203,52,206]},"CODE":"B0FFK7X14Q","NAME":"九小区社区","TYPE":"商务住宅;住宅区;住宅小区","ADDRESS":"凌空街道","X":123.368347,"Y":41.770117,"LNG":123.368347,"LAT":41.770117,"BOUNDS":null,"MEMO":null,"HOUSEHOLDS":null,"IS_VALID":1,"SOURCE":"高德","CREATE_DATE":"2019-12-11T02:16:33.000Z","COMMUNITY_ID":null,"COUNTY_ID":{"type":"Buffer","data":[107,103,12,242,177,1,64,144,172,68,191,108,188,227,101,85]}},{"VILLAGE_ID":{"type":"Buffer","data":[220,130,93,0,33,82,69,148,139,31,143,155,67,237,108,22]},"CODE":"B0FFG7YV24","NAME":"兴顺社区","TYPE":"商务住宅;住宅区;住宅小区","ADDRESS":"兴顺街29-1号","X":123.363101,"Y":41.796533,"LNG":123.363101,"LAT":41.796533,"BOUNDS":null,"MEMO":null,"HOUSEHOLDS":null,"IS_VALID":1,"SOURCE":"高德","CREATE_DATE":"2019-12-11T02:16:33.000Z","COMMUNITY_ID":null,"COUNTY_ID":{"type":"Buffer","data":[107,103,12,242,177,1,64,144,172,68,191,108,188,227,101,85]}},{"VILLAGE_ID":{"type":"Buffer","data":[134,134,198,43,33,150,79,222,171,215,105,24,219,61,217,34]},"CODE":"B0FFGMPJIP","NAME":"团结新村","TYPE":"商务住宅;住宅区;住宅小区","ADDRESS":"北二路卫工街","X":123.349558,"Y":41.815419999999996,"LNG":123.349558,"LAT":41.815419999999996,"BOUNDS":null,"MEMO":null,"HOUSEHOLDS":null,"IS_VALID":1,"SOURCE":"高德","CREATE_DATE":"2019-12-11T02:16:33.000Z","COMMUNITY_ID":null,"COUNTY_ID":{"type":"Buffer","data":[107,103,12,242,177,1,64,144,172,68,191,108,188,227,101,85]}},{"VILLAGE_ID":{"type":"Buffer","data":[106,159,97,166,231,8,72,90,145,35,81,184,207,151,45,221]},"CODE":"B0FFK6MUJN","NAME":"吉工小区","TYPE":"商务住宅;住宅区;住宅小区","ADDRESS":"勋望街与小七路交叉口南100米","X":123.362606,"Y":41.790366,"LNG":123.362606,"LAT":41.790366,"BOUNDS":null,"MEMO":null,"HOUSEHOLDS":null,"IS_VALID":1,"SOURCE":"高德","CREATE_DATE":"2019-12-11T02:16:33.000Z","COMMUNITY_ID":null,"COUNTY_ID":{"type":"Buffer","data":[107,103,12,242,177,1,64,144,172,68,191,108,188,227,101,85]}},{"VILLAGE_ID":{"type":"Buffer","data":[94,62,80,151,252,247,79,179,135,247,243,224,216,23,46,118]},"CODE":"B0FFKH9259","NAME":"里仁居","TYPE":"商务住宅;住宅区;住宅小区","ADDRESS":"腾飞二街18甲9号附近","X":123.35767899999999,"Y":41.773308,"LNG":123.35767899999999,"LAT":41.773308,"BOUNDS":null,"MEMO":null,"HOUSEHOLDS":null,"IS_VALID":1,"SOURCE":"高德","CREATE_DATE":"2019-12-11T02:16:33.000Z","COMMUNITY_ID":null,"COUNTY_ID":{"type":"Buffer","data":[107,103,12,242,177,1,64,144,172,68,191,108,188,227,101,85]}},{"VILLAGE_ID":{"type":"Buffer","data":[139,233,119,201,63,82,66,248,139,22,189,231,25,209,170,158]},"CODE":"B0FFKQ0KUW","NAME":"浅草线阁小区","TYPE":"商务住宅;住宅区;住宅小区","ADDRESS":"保工南街20号","X":123.35283,"Y":41.796371,"LNG":123.35283,"LAT":41.796371,"BOUNDS":null,"MEMO":null,"HOUSEHOLDS":null,"IS_VALID":1,"SOURCE":"高德","CREATE_DATE":"2019-12-11T02:16:33.000Z","COMMUNITY_ID":null,"COUNTY_ID":{"type":"Buffer","data":[107,103,12,242,177,1,64,144,172,68,191,108,188,227,101,85]}},{"VILLAGE_ID":{"type":"Buffer","data":[140,180,125,44,142,245,64,251,144,51,128,188,242,253,100,174]},"CODE":"B0FFGT9OQ2","NAME":"红艳路社区","TYPE":"商务住宅;住宅区;住宅小区","ADDRESS":"艳粉街2-2号附近","X":123.351081,"Y":41.778272,"LNG":123.351081,"LAT":41.778272,"BOUNDS":null,"MEMO":null,"HOUSEHOLDS":null,"IS_VALID":1,"SOURCE":"高德","CREATE_DATE":"2019-12-11T02:16:33.000Z","COMMUNITY_ID":null,"COUNTY_ID":{"type":"Buffer","data":[107,103,12,242,177,1,64,144,172,68,191,108,188,227,101,85]}},{"VILLAGE_ID":{"type":"Buffer","data":[1,173,207,70,190,243,78,153,173,26,166,197,27,167,97,25]},"CODE":"B0FFI97TEC","NAME":"工人村一小区","TYPE":"商务住宅;住宅区;住宅小区","ADDRESS":"铁西肇工街十二路","X":123.33463,"Y":41.79072,"LNG":123.33463,"LAT":41.79072,"BOUNDS":null,"MEMO":null,"HOUSEHOLDS":null,"IS_VALID":1,"SOURCE":"高德","CREATE_DATE":"2019-12-11T02:16:33.000Z","COMMUNITY_ID":null,"COUNTY_ID":{"type":"Buffer","data":[107,103,12,242,177,1,64,144,172,68,191,108,188,227,101,85]}},{"VILLAGE_ID":{"type":"Buffer","data":[124,41,26,133,114,65,70,54,181,207,64,177,243,85,88,198]},"CODE":"B00180JZFQ","NAME":"慧莲花园","TYPE":"商务住宅;住宅区;住宅小区","ADDRESS":"南十西路32号","X":123.336614,"Y":41.794810999999996,"LNG":123.336614,"LAT":41.794810999999996,"BOUNDS":null,"MEMO":null,"HOUSEHOLDS":null,"IS_VALID":1,"SOURCE":"高德","CREATE_DATE":"2019-12-11T02:16:33.000Z","COMMUNITY_ID":null,"COUNTY_ID":{"type":"Buffer","data":[107,103,12,242,177,1,64,144,172,68,191,108,188,227,101,85]}},{"VILLAGE_ID":{"type":"Buffer","data":[117,203,7,92,59,124,78,196,146,239,228,56,153,112,196,247]},"CODE":"B0FFL4LDMG","NAME":"永善小区","TYPE":"商务住宅;住宅区;住宅小区","ADDRESS":"红粉街98-2号","X":123.345784,"Y":41.773717,"LNG":123.345784,"LAT":41.773717,"BOUNDS":null,"MEMO":null,"HOUSEHOLDS":null,"IS_VALID":1,"SOURCE":"高德","CREATE_DATE":"2019-12-11T02:16:33.000Z","COMMUNITY_ID":null,"COUNTY_ID":{"type":"Buffer","data":[107,103,12,242,177,1,64,144,172,68,191,108,188,227,101,85]}},{"VILLAGE_ID":{"type":"Buffer","data":[154,70,46,194,172,16,71,205,151,146,222,7,254,224,7,193]},"CODE":"B0FFJRSVT8","NAME":"居家无忧社区(清乐店)","TYPE":"商务住宅;住宅区;住宅小区","ADDRESS":"强工二街27号-6门","X":123.322761,"Y":41.790527999999995,"LNG":123.322761,"LAT":41.790527999999995,"BOUNDS":null,"MEMO":null,"HOUSEHOLDS":null,"IS_VALID":1,"SOURCE":"高德","CREATE_DATE":"2019-12-11T02:16:33.000Z","COMMUNITY_ID":null,"COUNTY_ID":{"type":"Buffer","data":[107,103,12,242,177,1,64,144,172,68,191,108,188,227,101,85]}},{"VILLAGE_ID":{"type":"Buffer","data":[100,143,7,22,180,243,70,33,161,17,44,82,111,76,167,249]},"CODE":"B0FFJ2NMSA","NAME":"君临天下","TYPE":"商务住宅;住宅区;住宅小区","ADDRESS":"小北一西路17附近","X":123.33273299999999,"Y":41.826338,"LNG":123.33273299999999,"LAT":41.826338,"BOUNDS":null,"MEMO":null,"HOUSEHOLDS":null,"IS_VALID":1,"SOURCE":"高德","CREATE_DATE":"2019-12-11T02:16:33.000Z","COMMUNITY_ID":null,"COUNTY_ID":{"type":"Buffer","data":[107,103,12,242,177,1,64,144,172,68,191,108,188,227,101,85]}},{"VILLAGE_ID":{"type":"Buffer","data":[110,130,236,221,206,247,67,115,162,66,12,140,8,60,184,177]},"CODE":"B0FFLGUNB3","NAME":"艳路安居二期","TYPE":"商务住宅;住宅区;住宅小区","ADDRESS":null,"X":123.355913,"Y":41.774564,"LNG":123.355913,"LAT":41.774564,"BOUNDS":null,"MEMO":null,"HOUSEHOLDS":null,"IS_VALID":1,"SOURCE":"高德","CREATE_DATE":"2019-12-11T02:16:33.000Z","COMMUNITY_ID":null,"COUNTY_ID":{"type":"Buffer","data":[107,103,12,242,177,1,64,144,172,68,191,108,188,227,101,85]}},{"VILLAGE_ID":{"type":"Buffer","data":[108,245,110,167,199,12,64,152,154,9,252,255,248,89,217,52]},"CODE":"B0FFKJJB5G","NAME":"阳光碧水园2期","TYPE":"商务住宅;住宅区;住宅小区","ADDRESS":"启工北街8号(北二路与启工街交汇处北行50米)","X":123.348393,"Y":41.819030999999995,"LNG":123.348393,"LAT":41.819030999999995,"BOUNDS":null,"MEMO":null,"HOUSEHOLDS":null,"IS_VALID":1,"SOURCE":"高德","CREATE_DATE":"2019-12-11T02:16:33.000Z","COMMUNITY_ID":null,"COUNTY_ID":{"type":"Buffer","data":[107,103,12,242,177,1,64,144,172,68,191,108,188,227,101,85]}},{"VILLAGE_ID":{"type":"Buffer","data":[30,253,36,115,161,202,75,100,145,35,91,14,207,54,109,152]},"CODE":"B0FFKVBP5H","NAME":"鑫丰·鑫悦府(建设中)","TYPE":"商务住宅;住宅区;住宅小区","ADDRESS":null,"X":123.349364,"Y":41.809182,"LNG":123.349364,"LAT":41.809182,"BOUNDS":null,"MEMO":null,"HOUSEHOLDS":null,"IS_VALID":1,"SOURCE":"高德","CREATE_DATE":"2019-12-11T02:16:33.000Z","COMMUNITY_ID":null,"COUNTY_ID":{"type":"Buffer","data":[107,103,12,242,177,1,64,144,172,68,191,108,188,227,101,85]}},{"VILLAGE_ID":{"type":"Buffer","data":[141,25,34,205,6,148,65,29,189,3,175,159,10,16,136,242]},"CODE":"B0FFLFGDEE","NAME":"宝时跃墅","TYPE":"商务住宅;住宅区;住宅小区","ADDRESS":"北二西路","X":123.348139,"Y":41.815366,"LNG":123.348139,"LAT":41.815366,"BOUNDS":null,"MEMO":null,"HOUSEHOLDS":null,"IS_VALID":1,"SOURCE":"高德","CREATE_DATE":"2019-12-11T02:16:33.000Z","COMMUNITY_ID":null,"COUNTY_ID":{"type":"Buffer","data":[107,103,12,242,177,1,64,144,172,68,191,108,188,227,101,85]}},{"VILLAGE_ID":{"type":"Buffer","data":[17,112,110,78,60,7,72,68,130,108,165,184,20,156,96,175]},"CODE":"B0FFKHJGC0","NAME":"宏发长岛2","TYPE":"商务住宅;住宅区;住宅小区","ADDRESS":"揽军路40-3号附近","X":123.3339,"Y":41.775362,"LNG":123.3339,"LAT":41.775362,"BOUNDS":null,"MEMO":null,"HOUSEHOLDS":null,"IS_VALID":1,"SOURCE":"高德","CREATE_DATE":"2019-12-11T02:16:33.000Z","COMMUNITY_ID":null,"COUNTY_ID":{"type":"Buffer","data":[107,103,12,242,177,1,64,144,172,68,191,108,188,227,101,85]}},{"VILLAGE_ID":{"type":"Buffer","data":[161,133,102,161,189,127,74,37,135,154,205,84,97,116,138,175]},"CODE":"B0FFKPUSFE","NAME":"圆梦圆","TYPE":"商务住宅;住宅区;住宅小区","ADDRESS":"揽军路54附近","X":123.341463,"Y":41.772166999999996,"LNG":123.341463,"LAT":41.772166999999996,"BOUNDS":null,"MEMO":null,"HOUSEHOLDS":null,"IS_VALID":1,"SOURCE":"高德","CREATE_DATE":"2019-12-11T02:16:33.000Z","COMMUNITY_ID":null,"COUNTY_ID":{"type":"Buffer","data":[107,103,12,242,177,1,64,144,172,68,191,108,188,227,101,85]}},{"VILLAGE_ID":{"type":"Buffer","data":[63,170,253,255,251,77,71,5,163,138,78,216,156,232,45,233]},"CODE":"B0FFH7JNS6","NAME":"春江花月","TYPE":"商务住宅;住宅区;住宅小区","ADDRESS":"艳粉街五六巷11号","X":123.346267,"Y":41.770770999999996,"LNG":123.346267,"LAT":41.770770999999996,"BOUNDS":null,"MEMO":null,"HOUSEHOLDS":null,"IS_VALID":1,"SOURCE":"高德","CREATE_DATE":"2019-12-11T02:16:33.000Z","COMMUNITY_ID":null,"COUNTY_ID":{"type":"Buffer","data":[107,103,12,242,177,1,64,144,172,68,191,108,188,227,101,85]}},{"VILLAGE_ID":{"type":"Buffer","data":[199,127,26,8,116,227,73,184,167,31,75,203,159,197,178,205]},"CODE":"B00180JZDS","NAME":"鑫丰俪城","TYPE":"商务住宅;住宅区;住宅小区","ADDRESS":"北二马路景兴北街32号","X":123.37284700000001,"Y":41.811313,"LNG":123.37284700000001,"LAT":41.811313,"BOUNDS":null,"MEMO":null,"HOUSEHOLDS":null,"IS_VALID":1,"SOURCE":"高德","CREATE_DATE":"2019-12-11T02:16:33.000Z","COMMUNITY_ID":null,"COUNTY_ID":{"type":"Buffer","data":[107,103,12,242,177,1,64,144,172,68,191,108,188,227,101,85]}},{"VILLAGE_ID":{"type":"Buffer","data":[255,22,58,41,170,81,66,129,182,129,11,93,2,18,61,140]},"CODE":"B00180K8UI","NAME":"龙城公馆","TYPE":"商务住宅;住宅区;住宅小区","ADDRESS":"腾飞一街2甲-1号","X":123.368165,"Y":41.780660999999995,"LNG":123.368165,"LAT":41.780660999999995,"BOUNDS":null,"MEMO":null,"HOUSEHOLDS":null,"IS_VALID":1,"SOURCE":"高德","CREATE_DATE":"2019-12-11T02:16:33.000Z","COMMUNITY_ID":null,"COUNTY_ID":{"type":"Buffer","data":[107,103,12,242,177,1,64,144,172,68,191,108,188,227,101,85]}},{"VILLAGE_ID":{"type":"Buffer","data":[227,122,149,74,60,212,68,133,174,112,74,58,175,116,11,56]},"CODE":"B00180GP1U","NAME":"金都花园","TYPE":"商务住宅;住宅区;住宅小区","ADDRESS":"腾飞二街22-1号","X":123.356689,"Y":41.771051,"LNG":123.356689,"LAT":41.771051,"BOUNDS":null,"MEMO":null,"HOUSEHOLDS":null,"IS_VALID":1,"SOURCE":"高德","CREATE_DATE":"2019-12-11T02:16:33.000Z","COMMUNITY_ID":null,"COUNTY_ID":{"type":"Buffer","data":[107,103,12,242,177,1,64,144,172,68,191,108,188,227,101,85]}},{"VILLAGE_ID":{"type":"Buffer","data":[37,31,33,144,3,155,72,18,135,96,7,37,8,190,145,213]},"CODE":"B00180JP4P","NAME":"浪漫满屋","TYPE":"商务住宅;住宅区;住宅小区","ADDRESS":"兴华北街19号","X":123.378521,"Y":41.803191,"LNG":123.378521,"LAT":41.803191,"BOUNDS":null,"MEMO":null,"HOUSEHOLDS":null,"IS_VALID":1,"SOURCE":"高德","CREATE_DATE":"2019-12-11T02:16:33.000Z","COMMUNITY_ID":null,"COUNTY_ID":{"type":"Buffer","data":[107,103,12,242,177,1,64,144,172,68,191,108,188,227,101,85]}},{"VILLAGE_ID":{"type":"Buffer","data":[6,236,19,151,95,164,70,27,156,65,243,166,179,115,39,79]},"CODE":"B00180K8N8","NAME":"工人新村(重工南街)","TYPE":"商务住宅;住宅区;住宅小区","ADDRESS":"赞工街10-2号","X":123.324535,"Y":41.79143,"LNG":123.324535,"LAT":41.79143,"BOUNDS":null,"MEMO":null,"HOUSEHOLDS":null,"IS_VALID":1,"SOURCE":"高德","CREATE_DATE":"2019-12-11T02:16:33.000Z","COMMUNITY_ID":null,"COUNTY_ID":{"type":"Buffer","data":[107,103,12,242,177,1,64,144,172,68,191,108,188,227,101,85]}},{"VILLAGE_ID":{"type":"Buffer","data":[161,193,255,9,119,199,67,1,152,244,38,138,45,160,142,74]},"CODE":"B00180JE2Z","NAME":"中海公寓","TYPE":"商务住宅;住宅区;住宅小区","ADDRESS":"兴工北街64号,近沈阳火车站西广场","X":123.389843,"Y":41.799566999999996,"LNG":123.389843,"LAT":41.799566999999996,"BOUNDS":null,"MEMO":null,"HOUSEHOLDS":null,"IS_VALID":1,"SOURCE":"高德","CREATE_DATE":"2019-12-11T02:16:33.000Z","COMMUNITY_ID":null,"COUNTY_ID":{"type":"Buffer","data":[107,103,12,242,177,1,64,144,172,68,191,108,188,227,101,85]}},{"VILLAGE_ID":{"type":"Buffer","data":[106,88,145,163,46,34,76,98,184,195,134,172,161,42,175,149]},"CODE":"B00180JSG5","NAME":"阳光嘉园(北三中路)","TYPE":"商务住宅;住宅区;住宅小区","ADDRESS":"齐贤北街22-4号","X":123.363827,"Y":41.806759,"LNG":123.363827,"LAT":41.806759,"BOUNDS":null,"MEMO":null,"HOUSEHOLDS":null,"IS_VALID":1,"SOURCE":"高德","CREATE_DATE":"2019-12-11T02:16:33.000Z","COMMUNITY_ID":null,"COUNTY_ID":{"type":"Buffer","data":[107,103,12,242,177,1,64,144,172,68,191,108,188,227,101,85]}},{"VILLAGE_ID":{"type":"Buffer","data":[252,97,107,226,74,130,74,45,172,211,251,7,206,125,239,231]},"CODE":"B00180JE3A","NAME":"千缘爱在城","TYPE":"商务住宅;住宅区;住宅小区","ADDRESS":"华北街32号1-23-8","X":123.376896,"Y":41.803824999999996,"LNG":123.376896,"LAT":41.803824999999996,"BOUNDS":null,"MEMO":null,"HOUSEHOLDS":null,"IS_VALID":1,"SOURCE":"高德","CREATE_DATE":"2019-12-11T02:16:33.000Z","COMMUNITY_ID":null,"COUNTY_ID":{"type":"Buffer","data":[107,103,12,242,177,1,64,144,172,68,191,108,188,227,101,85]}},{"VILLAGE_ID":{"type":"Buffer","data":[250,36,231,54,3,11,78,3,152,203,149,136,68,65,41,22]},"CODE":"B00180AKGP","NAME":"书香门第(南六东路)","TYPE":"商务住宅;住宅区;住宅小区","ADDRESS":"南七东路10甲1","X":123.378068,"Y":41.787236,"LNG":123.378068,"LAT":41.787236,"BOUNDS":null,"MEMO":null,"HOUSEHOLDS":null,"IS_VALID":1,"SOURCE":"高德","CREATE_DATE":"2019-12-11T02:16:33.000Z","COMMUNITY_ID":null,"COUNTY_ID":{"type":"Buffer","data":[107,103,12,242,177,1,64,144,172,68,191,108,188,227,101,85]}},{"VILLAGE_ID":{"type":"Buffer","data":[192,110,178,130,52,222,70,178,169,178,43,148,165,51,176,154]},"CODE":"B00180K280","NAME":"优诗美地","TYPE":"商务住宅;住宅区;住宅小区","ADDRESS":"铁西经济技术开发区中央大街20甲2号32-1","X":123.242951,"Y":41.757051,"LNG":123.242951,"LAT":41.757051,"BOUNDS":null,"MEMO":null,"HOUSEHOLDS":null,"IS_VALID":1,"SOURCE":"高德","CREATE_DATE":"2019-12-11T02:16:33.000Z","COMMUNITY_ID":null,"COUNTY_ID":{"type":"Buffer","data":[107,103,12,242,177,1,64,144,172,68,191,108,188,227,101,85]}},{"VILLAGE_ID":{"type":"Buffer","data":[38,220,87,55,219,144,65,100,163,30,76,198,9,81,113,238]},"CODE":"B00180JAJ5","NAME":"光明新村","TYPE":"商务住宅;住宅区;住宅小区","ADDRESS":"北一中路附近","X":123.377982,"Y":41.817059,"LNG":123.377982,"LAT":41.817059,"BOUNDS":null,"MEMO":null,"HOUSEHOLDS":null,"IS_VALID":1,"SOURCE":"高德","CREATE_DATE":"2019-12-11T02:16:33.000Z","COMMUNITY_ID":null,"COUNTY_ID":{"type":"Buffer","data":[107,103,12,242,177,1,64,144,172,68,191,108,188,227,101,85]}},{"VILLAGE_ID":{"type":"Buffer","data":[154,29,205,194,208,232,78,175,139,98,11,183,105,24,250,122]},"CODE":"B00180K7Q1","NAME":"君悦美景","TYPE":"商务住宅;住宅区;住宅小区","ADDRESS":"北一西路37号","X":123.32063,"Y":41.829882999999995,"LNG":123.32063,"LAT":41.829882999999995,"BOUNDS":null,"MEMO":null,"HOUSEHOLDS":null,"IS_VALID":1,"SOURCE":"高德","CREATE_DATE":"2019-12-11T02:16:33.000Z","COMMUNITY_ID":null,"COUNTY_ID":{"type":"Buffer","data":[107,103,12,242,177,1,64,144,172,68,191,108,188,227,101,85]}},{"VILLAGE_ID":{"type":"Buffer","data":[80,4,143,120,124,100,70,200,158,143,40,209,106,24,184,176]},"CODE":"B00180JQVA","NAME":"保利百合花园(爱工北街)","TYPE":"商务住宅;住宅区;住宅小区","ADDRESS":"北二路爱工北街9","X":123.389544,"Y":41.803716,"LNG":123.389544,"LAT":41.803716,"BOUNDS":null,"MEMO":null,"HOUSEHOLDS":null,"IS_VALID":1,"SOURCE":"高德","CREATE_DATE":"2019-12-11T02:16:34.000Z","COMMUNITY_ID":null,"COUNTY_ID":{"type":"Buffer","data":[107,103,12,242,177,1,64,144,172,68,191,108,188,227,101,85]}},{"VILLAGE_ID":{"type":"Buffer","data":[88,129,36,243,201,93,78,84,152,226,81,225,189,121,106,130]},"CODE":"B00180ICR2","NAME":"云峰嘉园","TYPE":"商务住宅;住宅区;住宅小区","ADDRESS":"云峰北街10号","X":123.384087,"Y":41.802608,"LNG":123.384087,"LAT":41.802608,"BOUNDS":null,"MEMO":null,"HOUSEHOLDS":null,"IS_VALID":1,"SOURCE":"高德","CREATE_DATE":"2019-12-11T02:16:34.000Z","COMMUNITY_ID":null,"COUNTY_ID":{"type":"Buffer","data":[107,103,12,242,177,1,64,144,172,68,191,108,188,227,101,85]}},{"VILLAGE_ID":{"type":"Buffer","data":[227,203,227,23,13,124,78,47,144,64,206,65,146,75,228,174]},"CODE":"B00180JAMZ","NAME":"家宁花园","TYPE":"商务住宅;住宅区;住宅小区","ADDRESS":"沈辽路","X":123.272073,"Y":41.754171,"LNG":123.272073,"LAT":41.754171,"BOUNDS":null,"MEMO":null,"HOUSEHOLDS":null,"IS_VALID":1,"SOURCE":"高德","CREATE_DATE":"2019-12-11T02:16:34.000Z","COMMUNITY_ID":null,"COUNTY_ID":{"type":"Buffer","data":[107,103,12,242,177,1,64,144,172,68,191,108,188,227,101,85]}},{"VILLAGE_ID":{"type":"Buffer","data":[166,142,59,204,37,8,73,54,130,224,207,201,39,213,208,198]},"CODE":"B0FFGYCT1A","NAME":"居家无忧社区(阳光100店)","TYPE":"商务住宅;住宅区;住宅小区","ADDRESS":"阳光路18号D6-120","X":123.364451,"Y":41.75234,"LNG":123.364451,"LAT":41.75234,"BOUNDS":null,"MEMO":null,"HOUSEHOLDS":null,"IS_VALID":1,"SOURCE":"高德","CREATE_DATE":"2019-12-11T02:12:57.000Z","COMMUNITY_ID":null,"COUNTY_ID":{"type":"Buffer","data":[212,69,100,198,154,247,64,119,184,135,73,200,112,249,14,224]}},{"VILLAGE_ID":{"type":"Buffer","data":[218,238,218,168,212,151,64,37,155,132,17,68,179,17,60,217]},"CODE":"B00180K7JT","NAME":"阳光尚城Ⅱ期","TYPE":"商务住宅;住宅区;住宅小区","ADDRESS":"怒江北街","X":123.396669,"Y":41.870256,"LNG":123.396669,"LAT":41.870256,"BOUNDS":null,"MEMO":null,"HOUSEHOLDS":null,"IS_VALID":1,"SOURCE":"高德","CREATE_DATE":"2019-12-11T02:12:57.000Z","COMMUNITY_ID":null,"COUNTY_ID":{"type":"Buffer","data":[212,69,100,198,154,247,64,119,184,135,73,200,112,249,14,224]}},{"VILLAGE_ID":{"type":"Buffer","data":[225,29,41,136,36,91,75,49,184,18,201,78,251,198,145,208]},"CODE":"B0FFI2USMO","NAME":"居家无忧社区(湖畔新城店)","TYPE":"商务住宅;住宅区;住宅小区","ADDRESS":"汀江街48号(湖畔新城社区活动室旁)","X":123.352609,"Y":41.858688,"LNG":123.352609,"LAT":41.858688,"BOUNDS":null,"MEMO":null,"HOUSEHOLDS":null,"IS_VALID":1,"SOURCE":"高德","CREATE_DATE":"2019-12-11T02:12:57.000Z","COMMUNITY_ID":null,"COUNTY_ID":{"type":"Buffer","data":[212,69,100,198,154,247,64,119,184,135,73,200,112,249,14,224]}},{"VILLAGE_ID":{"type":"Buffer","data":[161,230,146,41,155,128,75,170,152,39,216,69,184,254,227,154]},"CODE":"B0FFI330L1","NAME":"居家无忧社区(李官社区店)","TYPE":"商务住宅;住宅区;住宅小区","ADDRESS":"东平湖街40-6号","X":123.283327,"Y":41.803732,"LNG":123.283327,"LAT":41.803732,"BOUNDS":null,"MEMO":null,"HOUSEHOLDS":null,"IS_VALID":1,"SOURCE":"高德","CREATE_DATE":"2019-12-11T02:12:57.000Z","COMMUNITY_ID":null,"COUNTY_ID":{"type":"Buffer","data":[212,69,100,198,154,247,64,119,184,135,73,200,112,249,14,224]}},{"VILLAGE_ID":{"type":"Buffer","data":[96,93,27,113,149,248,64,178,162,128,181,141,180,252,216,102]},"CODE":"B0FFI32VBX","NAME":"居家无忧社区(北美社区店)","TYPE":"商务住宅;住宅区;住宅小区","ADDRESS":"丹景山路22-3","X":123.391308,"Y":41.855301,"LNG":123.391308,"LAT":41.855301,"BOUNDS":null,"MEMO":null,"HOUSEHOLDS":null,"IS_VALID":1,"SOURCE":"高德","CREATE_DATE":"2019-12-11T02:12:57.000Z","COMMUNITY_ID":null,"COUNTY_ID":{"type":"Buffer","data":[212,69,100,198,154,247,64,119,184,135,73,200,112,249,14,224]}},{"VILLAGE_ID":{"type":"Buffer","data":[52,211,11,2,5,47,69,88,181,108,202,80,151,83,55,63]},"CODE":"B0FFFTVP1X","NAME":"于洪区城东湖街道宏城社区","TYPE":"商务住宅;住宅区;住宅小区","ADDRESS":"吉力湖街228-1号","X":123.33825999999999,"Y":41.77007,"LNG":123.33825999999999,"LAT":41.77007,"BOUNDS":null,"MEMO":null,"HOUSEHOLDS":null,"IS_VALID":1,"SOURCE":"高德","CREATE_DATE":"2019-12-11T02:12:57.000Z","COMMUNITY_ID":null,"COUNTY_ID":{"type":"Buffer","data":[212,69,100,198,154,247,64,119,184,135,73,200,112,249,14,224]}},{"VILLAGE_ID":{"type":"Buffer","data":[132,100,105,67,28,220,76,149,187,148,17,17,174,146,23,199]},"CODE":"B00180J9HD","NAME":"阳光花园","TYPE":"商务住宅;住宅区;住宅小区","ADDRESS":"长江北街62-16号","X":123.403988,"Y":41.853046,"LNG":123.403988,"LAT":41.853046,"BOUNDS":null,"MEMO":null,"HOUSEHOLDS":null,"IS_VALID":1,"SOURCE":"高德","CREATE_DATE":"2019-12-11T02:12:57.000Z","COMMUNITY_ID":null,"COUNTY_ID":{"type":"Buffer","data":[212,69,100,198,154,247,64,119,184,135,73,200,112,249,14,224]}},{"VILLAGE_ID":{"type":"Buffer","data":[153,167,173,152,84,238,72,203,173,137,129,40,220,205,93,208]},"CODE":"B00181BOBV","NAME":"松山安居小区东区","TYPE":"商务住宅;住宅区;住宅小区","ADDRESS":"黑山路8-20号","X":123.408777,"Y":41.869994999999996,"LNG":123.408777,"LAT":41.869994999999996,"BOUNDS":null,"MEMO":null,"HOUSEHOLDS":null,"IS_VALID":1,"SOURCE":"高德","CREATE_DATE":"2019-12-11T02:12:57.000Z","COMMUNITY_ID":null,"COUNTY_ID":{"type":"Buffer","data":[212,69,100,198,154,247,64,119,184,135,73,200,112,249,14,224]}},{"VILLAGE_ID":{"type":"Buffer","data":[209,137,109,92,0,67,79,118,174,229,18,70,105,146,165,145]},"CODE":"B00180IHJ6","NAME":"格林梦夏I期园区","TYPE":"商务住宅;住宅区;住宅小区","ADDRESS":"怒江北街15-6号附近","X":123.3995,"Y":41.846854,"LNG":123.3995,"LAT":41.846854,"BOUNDS":null,"MEMO":null,"HOUSEHOLDS":null,"IS_VALID":1,"SOURCE":"高德","CREATE_DATE":"2019-12-11T02:12:57.000Z","COMMUNITY_ID":null,"COUNTY_ID":{"type":"Buffer","data":[212,69,100,198,154,247,64,119,184,135,73,200,112,249,14,224]}},{"VILLAGE_ID":{"type":"Buffer","data":[203,131,180,125,106,240,68,9,168,67,151,211,104,134,80,154]},"CODE":"B00181CNSW","NAME":"沈阳市于洪区北陵街道包道社区","TYPE":"商务住宅;住宅区;住宅小区|政府机构及社会团体;政府及社会团体相关;政府及社会团体相关","ADDRESS":"黄河北大街130-16号斜对面","X":123.405236,"Y":41.883053,"LNG":123.405236,"LAT":41.883053,"BOUNDS":null,"MEMO":null,"HOUSEHOLDS":null,"IS_VALID":1,"SOURCE":"高德","CREATE_DATE":"2019-12-11T02:12:57.000Z","COMMUNITY_ID":null,"COUNTY_ID":{"type":"Buffer","data":[212,69,100,198,154,247,64,119,184,135,73,200,112,249,14,224]}},{"VILLAGE_ID":{"type":"Buffer","data":[45,10,58,230,194,99,73,117,155,0,168,186,131,169,231,46]},"CODE":"B00180IIGE","NAME":"五彩新村","TYPE":"商务住宅;住宅区;住宅小区","ADDRESS":"白山路12-1号","X":123.40932,"Y":41.86118,"LNG":123.40932,"LAT":41.86118,"BOUNDS":null,"MEMO":null,"HOUSEHOLDS":null,"IS_VALID":1,"SOURCE":"高德","CREATE_DATE":"2019-12-11T02:12:57.000Z","COMMUNITY_ID":null,"COUNTY_ID":{"type":"Buffer","data":[212,69,100,198,154,247,64,119,184,135,73,200,112,249,14,224]}},{"VILLAGE_ID":{"type":"Buffer","data":[115,30,232,170,81,54,78,212,133,252,238,112,202,141,214,183]},"CODE":"B00181C6P5","NAME":"阳光100新城·新城华庭","TYPE":"商务住宅;住宅区;住宅小区","ADDRESS":"吉力湖街28号(南阳湖大桥北侧200米)","X":123.353148,"Y":41.755972,"LNG":123.353148,"LAT":41.755972,"BOUNDS":null,"MEMO":null,"HOUSEHOLDS":null,"IS_VALID":1,"SOURCE":"高德","CREATE_DATE":"2019-12-11T02:12:57.000Z","COMMUNITY_ID":null,"COUNTY_ID":{"type":"Buffer","data":[212,69,100,198,154,247,64,119,184,135,73,200,112,249,14,224]}},{"VILLAGE_ID":{"type":"Buffer","data":[255,120,101,157,132,189,66,4,135,152,164,123,37,18,169,229]},"CODE":"B0FFLCW06K","NAME":"中海城和颂(建设中)","TYPE":"商务住宅;住宅区;住宅小区","ADDRESS":"西江街与赤山路交叉北走500米","X":123.365006,"Y":41.873528,"LNG":123.365006,"LAT":41.873528,"BOUNDS":null,"MEMO":null,"HOUSEHOLDS":null,"IS_VALID":1,"SOURCE":"高德","CREATE_DATE":"2019-12-11T02:12:57.000Z","COMMUNITY_ID":null,"COUNTY_ID":{"type":"Buffer","data":[212,69,100,198,154,247,64,119,184,135,73,200,112,249,14,224]}},{"VILLAGE_ID":{"type":"Buffer","data":[211,109,32,2,117,82,74,79,139,253,30,245,29,164,163,225]},"CODE":"B0FFJ2P6R2","NAME":"中海城·尚城","TYPE":"商务住宅;住宅区;住宅小区","ADDRESS":"西江街与赤山路交叉口东北150米","X":123.370653,"Y":41.871569,"LNG":123.370653,"LAT":41.871569,"BOUNDS":null,"MEMO":null,"HOUSEHOLDS":null,"IS_VALID":1,"SOURCE":"高德","CREATE_DATE":"2019-12-11T02:12:57.000Z","COMMUNITY_ID":null,"COUNTY_ID":{"type":"Buffer","data":[212,69,100,198,154,247,64,119,184,135,73,200,112,249,14,224]}},{"VILLAGE_ID":{"type":"Buffer","data":[231,36,251,58,7,49,76,204,147,95,212,93,245,231,71,212]},"CODE":"B0FFI3ZAYL","NAME":"中海城学府","TYPE":"商务住宅;住宅区;住宅小区","ADDRESS":"赤山路","X":123.37181799999999,"Y":41.870725,"LNG":123.37181799999999,"LAT":41.870725,"BOUNDS":null,"MEMO":null,"HOUSEHOLDS":null,"IS_VALID":1,"SOURCE":"高德","CREATE_DATE":"2019-12-11T02:12:57.000Z","COMMUNITY_ID":null,"COUNTY_ID":{"type":"Buffer","data":[212,69,100,198,154,247,64,119,184,135,73,200,112,249,14,224]}},{"VILLAGE_ID":{"type":"Buffer","data":[24,94,7,250,42,19,71,183,184,169,73,120,192,111,183,157]},"CODE":"B0FFHU7KNG","NAME":"中海城锦城","TYPE":"商务住宅;住宅区;住宅小区","ADDRESS":"赤山路北150米","X":123.366415,"Y":41.871513,"LNG":123.366415,"LAT":41.871513,"BOUNDS":null,"MEMO":null,"HOUSEHOLDS":null,"IS_VALID":1,"SOURCE":"高德","CREATE_DATE":"2019-12-11T02:12:57.000Z","COMMUNITY_ID":null,"COUNTY_ID":{"type":"Buffer","data":[212,69,100,198,154,247,64,119,184,135,73,200,112,249,14,224]}},{"VILLAGE_ID":{"type":"Buffer","data":[35,146,47,51,178,139,70,252,151,215,93,7,117,134,160,28]},"CODE":"B0FFHD3M68","NAME":"中海城1期","TYPE":"商务住宅;住宅区;住宅小区","ADDRESS":"西江街160号(荷兰村)","X":123.371064,"Y":41.866147999999995,"LNG":123.371064,"LAT":41.866147999999995,"BOUNDS":null,"MEMO":null,"HOUSEHOLDS":null,"IS_VALID":1,"SOURCE":"高德","CREATE_DATE":"2019-12-11T02:12:57.000Z","COMMUNITY_ID":null,"COUNTY_ID":{"type":"Buffer","data":[212,69,100,198,154,247,64,119,184,135,73,200,112,249,14,224]}},{"VILLAGE_ID":{"type":"Buffer","data":[221,152,160,80,125,155,70,37,178,176,241,231,32,251,62,126]},"CODE":"B0FFHC4QON","NAME":"恒大绿洲南区","TYPE":"商务住宅;住宅区;住宅小区","ADDRESS":"南阳湖街168号","X":123.33661599999999,"Y":41.743649,"LNG":123.33661599999999,"LAT":41.743649,"BOUNDS":null,"MEMO":null,"HOUSEHOLDS":null,"IS_VALID":1,"SOURCE":"高德","CREATE_DATE":"2019-12-11T02:12:57.000Z","COMMUNITY_ID":null,"COUNTY_ID":{"type":"Buffer","data":[212,69,100,198,154,247,64,119,184,135,73,200,112,249,14,224]}},{"VILLAGE_ID":{"type":"Buffer","data":[91,150,168,140,97,152,72,54,165,120,134,22,156,150,169,118]},"CODE":"B0FFH70TFK","NAME":"碧桂园银河城3-4区","TYPE":"商务住宅;住宅区;住宅小区","ADDRESS":"细河南路256-2s号附近","X":123.335835,"Y":41.752908999999995,"LNG":123.335835,"LAT":41.752908999999995,"BOUNDS":null,"MEMO":null,"HOUSEHOLDS":null,"IS_VALID":1,"SOURCE":"高德","CREATE_DATE":"2019-12-11T02:12:57.000Z","COMMUNITY_ID":null,"COUNTY_ID":{"type":"Buffer","data":[212,69,100,198,154,247,64,119,184,135,73,200,112,249,14,224]}},{"VILLAGE_ID":{"type":"Buffer","data":[60,52,91,226,244,162,69,76,180,145,255,29,222,31,31,176]},"CODE":"B0FFHCKGY0","NAME":"瑞士风情小镇1期","TYPE":"商务住宅;住宅区;住宅小区","ADDRESS":"沈辽路63号","X":123.328085,"Y":41.768890999999996,"LNG":123.328085,"LAT":41.768890999999996,"BOUNDS":null,"MEMO":null,"HOUSEHOLDS":null,"IS_VALID":1,"SOURCE":"高德","CREATE_DATE":"2019-12-11T02:12:57.000Z","COMMUNITY_ID":null,"COUNTY_ID":{"type":"Buffer","data":[212,69,100,198,154,247,64,119,184,135,73,200,112,249,14,224]}},{"VILLAGE_ID":{"type":"Buffer","data":[233,91,73,234,208,17,69,222,138,32,168,128,12,26,114,95]},"CODE":"B0FFH5YN4T","NAME":"碧桂园银河城天域2期","TYPE":"商务住宅;住宅区;住宅小区","ADDRESS":"南阳湖街与阳光路交汇处","X":123.339535,"Y":41.745382,"LNG":123.339535,"LAT":41.745382,"BOUNDS":null,"MEMO":null,"HOUSEHOLDS":null,"IS_VALID":1,"SOURCE":"高德","CREATE_DATE":"2019-12-11T02:12:57.000Z","COMMUNITY_ID":null,"COUNTY_ID":{"type":"Buffer","data":[212,69,100,198,154,247,64,119,184,135,73,200,112,249,14,224]}},{"VILLAGE_ID":{"type":"Buffer","data":[173,150,209,106,109,27,74,97,132,177,44,35,226,156,6,26]},"CODE":"B0FFH5WZSK","NAME":"中瑞北欧云著(建设中)","TYPE":"商务住宅;住宅区;住宅小区","ADDRESS":"汪河路170号","X":123.323425,"Y":41.745934999999996,"LNG":123.323425,"LAT":41.745934999999996,"BOUNDS":null,"MEMO":null,"HOUSEHOLDS":null,"IS_VALID":1,"SOURCE":"高德","CREATE_DATE":"2019-12-11T02:12:57.000Z","COMMUNITY_ID":null,"COUNTY_ID":{"type":"Buffer","data":[212,69,100,198,154,247,64,119,184,135,73,200,112,249,14,224]}},{"VILLAGE_ID":{"type":"Buffer","data":[116,232,38,147,207,197,73,75,176,153,209,186,23,18,136,167]},"CODE":"B0FFJ2TZU0","NAME":"碧桂园辽中区域","TYPE":"商务住宅;住宅区;住宅小区","ADDRESS":"细河南路117号附近","X":123.341274,"Y":41.755094,"LNG":123.341274,"LAT":41.755094,"BOUNDS":null,"MEMO":null,"HOUSEHOLDS":null,"IS_VALID":1,"SOURCE":"高德","CREATE_DATE":"2019-12-11T02:12:57.000Z","COMMUNITY_ID":null,"COUNTY_ID":{"type":"Buffer","data":[212,69,100,198,154,247,64,119,184,135,73,200,112,249,14,224]}},{"VILLAGE_ID":{"type":"Buffer","data":[147,57,101,14,62,104,70,103,133,126,95,231,77,214,89,175]},"CODE":"B0FFH70HIP","NAME":"宏发英里·蓝湾","TYPE":"商务住宅;住宅区;住宅小区","ADDRESS":"南阳湖街细河南路","X":123.327159,"Y":41.751402999999996,"LNG":123.327159,"LAT":41.751402999999996,"BOUNDS":null,"MEMO":null,"HOUSEHOLDS":null,"IS_VALID":1,"SOURCE":"高德","CREATE_DATE":"2019-12-11T02:12:57.000Z","COMMUNITY_ID":null,"COUNTY_ID":{"type":"Buffer","data":[212,69,100,198,154,247,64,119,184,135,73,200,112,249,14,224]}},{"VILLAGE_ID":{"type":"Buffer","data":[108,178,147,219,196,0,70,47,188,215,224,219,26,186,149,176]},"CODE":"B0FFJ2TYJR","NAME":"华润·橡树湾红橡公馆","TYPE":"商务住宅;住宅区;住宅小区","ADDRESS":"松山西路161号","X":123.361155,"Y":41.858243,"LNG":123.361155,"LAT":41.858243,"BOUNDS":null,"MEMO":null,"HOUSEHOLDS":null,"IS_VALID":1,"SOURCE":"高德","CREATE_DATE":"2019-12-11T02:12:57.000Z","COMMUNITY_ID":null,"COUNTY_ID":{"type":"Buffer","data":[212,69,100,198,154,247,64,119,184,135,73,200,112,249,14,224]}},{"VILLAGE_ID":{"type":"Buffer","data":[171,147,216,137,159,238,64,253,174,9,17,121,140,31,108,186]},"CODE":"B0FFKHHGN5","NAME":"水调歌城","TYPE":"商务住宅;住宅区;住宅小区","ADDRESS":"细河南路58-2号附近","X":123.346741,"Y":41.759544999999996,"LNG":123.346741,"LAT":41.759544999999996,"BOUNDS":null,"MEMO":null,"HOUSEHOLDS":null,"IS_VALID":1,"SOURCE":"高德","CREATE_DATE":"2019-12-11T02:12:57.000Z","COMMUNITY_ID":null,"COUNTY_ID":{"type":"Buffer","data":[212,69,100,198,154,247,64,119,184,135,73,200,112,249,14,224]}},{"VILLAGE_ID":{"type":"Buffer","data":[217,245,237,30,100,11,66,137,175,174,7,220,51,178,221,165]},"CODE":"B0FFJI1U90","NAME":"阳光100凤凰湾","TYPE":"商务住宅;住宅区;住宅小区","ADDRESS":"阳光路32号","X":123.357354,"Y":41.750291,"LNG":123.357354,"LAT":41.750291,"BOUNDS":null,"MEMO":null,"HOUSEHOLDS":null,"IS_VALID":1,"SOURCE":"高德","CREATE_DATE":"2019-12-11T02:12:57.000Z","COMMUNITY_ID":null,"COUNTY_ID":{"type":"Buffer","data":[212,69,100,198,154,247,64,119,184,135,73,200,112,249,14,224]}},{"VILLAGE_ID":{"type":"Buffer","data":[102,124,77,31,170,166,67,117,134,128,210,24,1,63,85,142]},"CODE":"B0FFGZGGLQ","NAME":"平罗镇观莲雅居","TYPE":"商务住宅;住宅区;住宅小区","ADDRESS":"平罗中街","X":123.331991,"Y":41.942578,"LNG":123.331991,"LAT":41.942578,"BOUNDS":null,"MEMO":null,"HOUSEHOLDS":null,"IS_VALID":1,"SOURCE":"高德","CREATE_DATE":"2019-12-11T02:12:57.000Z","COMMUNITY_ID":null,"COUNTY_ID":{"type":"Buffer","data":[212,69,100,198,154,247,64,119,184,135,73,200,112,249,14,224]}},{"VILLAGE_ID":{"type":"Buffer","data":[15,190,187,221,19,72,72,222,183,47,163,155,100,87,196,145]},"CODE":"B0FFKHMWMJ","NAME":"鹏泰靓马花园","TYPE":"商务住宅;住宅区;住宅小区","ADDRESS":"滨江街与白山路交叉口东北150米","X":123.371849,"Y":41.856034,"LNG":123.371849,"LAT":41.856034,"BOUNDS":null,"MEMO":null,"HOUSEHOLDS":null,"IS_VALID":1,"SOURCE":"高德","CREATE_DATE":"2019-12-11T02:12:57.000Z","COMMUNITY_ID":null,"COUNTY_ID":{"type":"Buffer","data":[212,69,100,198,154,247,64,119,184,135,73,200,112,249,14,224]}},{"VILLAGE_ID":{"type":"Buffer","data":[196,98,107,60,63,215,66,203,174,70,170,52,19,143,90,4]},"CODE":"B0FFKEG0EU","NAME":"上林湾社区","TYPE":"商务住宅;住宅区;住宅小区","ADDRESS":"松山西路145-8号保利上林湾附近","X":123.367039,"Y":41.858791,"LNG":123.367039,"LAT":41.858791,"BOUNDS":null,"MEMO":null,"HOUSEHOLDS":null,"IS_VALID":1,"SOURCE":"高德","CREATE_DATE":"2019-12-11T02:12:57.000Z","COMMUNITY_ID":null,"COUNTY_ID":{"type":"Buffer","data":[212,69,100,198,154,247,64,119,184,135,73,200,112,249,14,224]}},{"VILLAGE_ID":{"type":"Buffer","data":[68,159,4,232,184,35,68,201,141,31,25,111,95,103,207,96]},"CODE":"B0FFGSZ8BY","NAME":"滑翔机场小区","TYPE":"商务住宅;住宅区;住宅小区","ADDRESS":"沈辽路25-3号","X":123.32745800000001,"Y":41.773084,"LNG":123.32745800000001,"LAT":41.773084,"BOUNDS":null,"MEMO":null,"HOUSEHOLDS":null,"IS_VALID":1,"SOURCE":"高德","CREATE_DATE":"2019-12-11T02:12:57.000Z","COMMUNITY_ID":null,"COUNTY_ID":{"type":"Buffer","data":[212,69,100,198,154,247,64,119,184,135,73,200,112,249,14,224]}},{"VILLAGE_ID":{"type":"Buffer","data":[122,189,8,163,68,169,65,222,169,241,155,78,1,50,127,18]},"CODE":"B0FFKHJ44R","NAME":"新城惠泽园A区","TYPE":"商务住宅;住宅区;住宅小区","ADDRESS":"细河路124-1门北50米","X":123.33739800000001,"Y":41.758302,"LNG":123.33739800000001,"LAT":41.758302,"BOUNDS":null,"MEMO":null,"HOUSEHOLDS":null,"IS_VALID":1,"SOURCE":"高德","CREATE_DATE":"2019-12-11T02:12:57.000Z","COMMUNITY_ID":null,"COUNTY_ID":{"type":"Buffer","data":[212,69,100,198,154,247,64,119,184,135,73,200,112,249,14,224]}},{"VILLAGE_ID":{"type":"Buffer","data":[72,219,222,34,201,216,64,186,154,37,95,81,53,248,133,179]},"CODE":"B0FFK2D3B9","NAME":"橡树湾","TYPE":"商务住宅;住宅区;住宅小区","ADDRESS":"贺江街6号20门","X":123.36156199999999,"Y":41.853671,"LNG":123.36156199999999,"LAT":41.853671,"BOUNDS":null,"MEMO":null,"HOUSEHOLDS":null,"IS_VALID":1,"SOURCE":"高德","CREATE_DATE":"2019-12-11T02:12:57.000Z","COMMUNITY_ID":null,"COUNTY_ID":{"type":"Buffer","data":[212,69,100,198,154,247,64,119,184,135,73,200,112,249,14,224]}},{"VILLAGE_ID":{"type":"Buffer","data":[24,19,215,251,189,209,70,223,138,97,107,204,98,229,134,165]},"CODE":"B0FFHCYV6Y","NAME":"碧桂园银河城8-1区","TYPE":"商务住宅;住宅区;住宅小区","ADDRESS":"细河路北50米","X":123.332437,"Y":41.755995999999996,"LNG":123.332437,"LAT":41.755995999999996,"BOUNDS":null,"MEMO":null,"HOUSEHOLDS":null,"IS_VALID":1,"SOURCE":"高德","CREATE_DATE":"2019-12-11T02:12:57.000Z","COMMUNITY_ID":null,"COUNTY_ID":{"type":"Buffer","data":[212,69,100,198,154,247,64,119,184,135,73,200,112,249,14,224]}},{"VILLAGE_ID":{"type":"Buffer","data":[224,18,198,180,92,73,75,44,152,119,29,100,147,6,190,108]},"CODE":"B0FFKYGAJX","NAME":"丽晶公馆","TYPE":"商务住宅;住宅区;住宅小区","ADDRESS":"黄河北大街108号","X":123.413644,"Y":41.87737,"LNG":123.413644,"LAT":41.87737,"BOUNDS":null,"MEMO":null,"HOUSEHOLDS":null,"IS_VALID":1,"SOURCE":"高德","CREATE_DATE":"2019-12-11T02:12:57.000Z","COMMUNITY_ID":null,"COUNTY_ID":{"type":"Buffer","data":[212,69,100,198,154,247,64,119,184,135,73,200,112,249,14,224]}},{"VILLAGE_ID":{"type":"Buffer","data":[208,219,54,118,184,48,72,27,190,238,75,127,47,67,25,73]},"CODE":"B0FFGB66LJ","NAME":"万鑫雅苑","TYPE":"商务住宅;住宅区;住宅小区","ADDRESS":"仙女河北路北100米","X":123.318876,"Y":41.763628,"LNG":123.318876,"LAT":41.763628,"BOUNDS":null,"MEMO":null,"HOUSEHOLDS":null,"IS_VALID":1,"SOURCE":"高德","CREATE_DATE":"2019-12-11T02:12:57.000Z","COMMUNITY_ID":null,"COUNTY_ID":{"type":"Buffer","data":[212,69,100,198,154,247,64,119,184,135,73,200,112,249,14,224]}},{"VILLAGE_ID":{"type":"Buffer","data":[5,198,215,64,135,1,73,39,185,128,213,241,56,87,84,72]},"CODE":"B001817EEV","NAME":"丽仁花园","TYPE":"商务住宅;住宅区;住宅小区","ADDRESS":"造化街道高丽村","X":123.325675,"Y":41.882056999999996,"LNG":123.325675,"LAT":41.882056999999996,"BOUNDS":null,"MEMO":null,"HOUSEHOLDS":null,"IS_VALID":1,"SOURCE":"高德","CREATE_DATE":"2019-12-11T02:12:57.000Z","COMMUNITY_ID":null,"COUNTY_ID":{"type":"Buffer","data":[212,69,100,198,154,247,64,119,184,135,73,200,112,249,14,224]}},{"VILLAGE_ID":{"type":"Buffer","data":[13,235,80,175,120,146,78,141,158,11,90,129,236,53,1,154]},"CODE":"B0FFHC8B0N","NAME":"华邑世纪城1期","TYPE":"商务住宅;住宅区;住宅小区","ADDRESS":"千山西路58号","X":123.386858,"Y":41.878574,"LNG":123.386858,"LAT":41.878574,"BOUNDS":null,"MEMO":null,"HOUSEHOLDS":null,"IS_VALID":1,"SOURCE":"高德","CREATE_DATE":"2019-12-11T02:12:57.000Z","COMMUNITY_ID":null,"COUNTY_ID":{"type":"Buffer","data":[212,69,100,198,154,247,64,119,184,135,73,200,112,249,14,224]}},{"VILLAGE_ID":{"type":"Buffer","data":[169,47,10,182,196,128,71,220,187,115,147,119,25,175,7,62]},"CODE":"B00180JE05","NAME":"恒泰骏景","TYPE":"商务住宅;住宅区;住宅小区","ADDRESS":"松山西路54号(长江北街与松山路交汇处)","X":123.402748,"Y":41.870476,"LNG":123.402748,"LAT":41.870476,"BOUNDS":null,"MEMO":null,"HOUSEHOLDS":null,"IS_VALID":1,"SOURCE":"高德","CREATE_DATE":"2019-12-11T02:12:57.000Z","COMMUNITY_ID":null,"COUNTY_ID":{"type":"Buffer","data":[212,69,100,198,154,247,64,119,184,135,73,200,112,249,14,224]}},{"VILLAGE_ID":{"type":"Buffer","data":[62,60,37,54,177,103,72,141,130,70,82,236,10,242,255,226]},"CODE":"B0018160EL","NAME":"五彩上筑","TYPE":"商务住宅;住宅区;住宅小区","ADDRESS":"北陵街道白山路54号2-15-1","X":123.392302,"Y":41.860043999999995,"LNG":123.392302,"LAT":41.860043999999995,"BOUNDS":null,"MEMO":null,"HOUSEHOLDS":null,"IS_VALID":1,"SOURCE":"高德","CREATE_DATE":"2019-12-11T02:12:57.000Z","COMMUNITY_ID":null,"COUNTY_ID":{"type":"Buffer","data":[212,69,100,198,154,247,64,119,184,135,73,200,112,249,14,224]}},{"VILLAGE_ID":{"type":"Buffer","data":[235,233,24,169,47,85,67,88,184,105,132,41,46,14,199,76]},"CODE":"B0018164IS","NAME":"环北家园三期","TYPE":"商务住宅;住宅区;住宅小区","ADDRESS":"青城山路附近","X":123.386858,"Y":41.890693999999996,"LNG":123.386858,"LAT":41.890693999999996,"BOUNDS":null,"MEMO":null,"HOUSEHOLDS":null,"IS_VALID":1,"SOURCE":"高德","CREATE_DATE":"2019-12-11T02:12:57.000Z","COMMUNITY_ID":null,"COUNTY_ID":{"type":"Buffer","data":[212,69,100,198,154,247,64,119,184,135,73,200,112,249,14,224]}},{"VILLAGE_ID":{"type":"Buffer","data":[125,215,180,129,185,204,74,203,144,37,18,253,90,160,64,172]},"CODE":"B00180K6AZ","NAME":"世代龙泽湾3期","TYPE":"商务住宅;住宅区;住宅小区","ADDRESS":"太湖街","X":123.304221,"Y":41.783561,"LNG":123.304221,"LAT":41.783561,"BOUNDS":null,"MEMO":null,"HOUSEHOLDS":null,"IS_VALID":1,"SOURCE":"高德","CREATE_DATE":"2019-12-11T02:12:57.000Z","COMMUNITY_ID":null,"COUNTY_ID":{"type":"Buffer","data":[212,69,100,198,154,247,64,119,184,135,73,200,112,249,14,224]}},{"VILLAGE_ID":{"type":"Buffer","data":[249,127,154,113,161,206,74,30,171,75,174,186,21,150,124,206]},"CODE":"B00180K8UP","NAME":"国奥现代城西区","TYPE":"商务住宅;住宅区;住宅小区","ADDRESS":"黄河北大街98号-8-1门附近","X":123.405005,"Y":41.875113999999996,"LNG":123.405005,"LAT":41.875113999999996,"BOUNDS":null,"MEMO":null,"HOUSEHOLDS":null,"IS_VALID":1,"SOURCE":"高德","CREATE_DATE":"2019-12-11T02:12:57.000Z","COMMUNITY_ID":null,"COUNTY_ID":{"type":"Buffer","data":[212,69,100,198,154,247,64,119,184,135,73,200,112,249,14,224]}},{"VILLAGE_ID":{"type":"Buffer","data":[112,225,191,142,114,58,72,144,144,234,119,164,193,240,185,1]},"CODE":"B0FFF2DTUW","NAME":"湖畔新城","TYPE":"商务住宅;住宅区;住宅小区","ADDRESS":"松山西路(华润置地橡树湾西走50米)紧邻丁香湖","X":123.354013,"Y":41.859321,"LNG":123.354013,"LAT":41.859321,"BOUNDS":null,"MEMO":null,"HOUSEHOLDS":null,"IS_VALID":1,"SOURCE":"高德","CREATE_DATE":"2019-12-11T02:12:57.000Z","COMMUNITY_ID":null,"COUNTY_ID":{"type":"Buffer","data":[212,69,100,198,154,247,64,119,184,135,73,200,112,249,14,224]}},{"VILLAGE_ID":{"type":"Buffer","data":[15,242,86,65,48,17,68,5,162,165,136,118,200,218,166,182]},"CODE":"B0018172SY","NAME":"国奥现代城南区","TYPE":"商务住宅;住宅区;住宅小区","ADDRESS":"赤山路17号","X":123.40830700000001,"Y":41.871863,"LNG":123.40830700000001,"LAT":41.871863,"BOUNDS":null,"MEMO":null,"HOUSEHOLDS":null,"IS_VALID":1,"SOURCE":"高德","CREATE_DATE":"2019-12-11T02:12:57.000Z","COMMUNITY_ID":null,"COUNTY_ID":{"type":"Buffer","data":[212,69,100,198,154,247,64,119,184,135,73,200,112,249,14,224]}},{"VILLAGE_ID":{"type":"Buffer","data":[136,134,132,43,57,231,70,191,174,230,145,125,39,113,189,221]},"CODE":"B00180JDNC","NAME":"博雅馨园","TYPE":"商务住宅;住宅区;住宅小区","ADDRESS":"黄河北大街74号","X":123.41591700000001,"Y":41.866112,"LNG":123.41591700000001,"LAT":41.866112,"BOUNDS":null,"MEMO":null,"HOUSEHOLDS":null,"IS_VALID":1,"SOURCE":"高德","CREATE_DATE":"2019-12-11T02:12:57.000Z","COMMUNITY_ID":null,"COUNTY_ID":{"type":"Buffer","data":[212,69,100,198,154,247,64,119,184,135,73,200,112,249,14,224]}},{"VILLAGE_ID":{"type":"Buffer","data":[59,222,11,190,184,242,67,140,179,146,203,173,71,9,163,169]},"CODE":"B00180JY75","NAME":"迎宾花园","TYPE":"商务住宅;住宅区;住宅小区","ADDRESS":"沈大路8-14号","X":123.313706,"Y":41.804091,"LNG":123.313706,"LAT":41.804091,"BOUNDS":null,"MEMO":null,"HOUSEHOLDS":null,"IS_VALID":1,"SOURCE":"高德","CREATE_DATE":"2019-12-11T02:12:57.000Z","COMMUNITY_ID":null,"COUNTY_ID":{"type":"Buffer","data":[212,69,100,198,154,247,64,119,184,135,73,200,112,249,14,224]}},{"VILLAGE_ID":{"type":"Buffer","data":[140,240,28,124,130,199,66,70,146,20,49,18,154,205,128,76]},"CODE":"B00180K8VT","NAME":"紫郡城西区","TYPE":"商务住宅;住宅区;住宅小区","ADDRESS":"城东湖街7-6号","X":123.364612,"Y":41.762541999999996,"LNG":123.364612,"LAT":41.762541999999996,"BOUNDS":null,"MEMO":null,"HOUSEHOLDS":null,"IS_VALID":1,"SOURCE":"高德","CREATE_DATE":"2019-12-11T02:12:57.000Z","COMMUNITY_ID":null,"COUNTY_ID":{"type":"Buffer","data":[212,69,100,198,154,247,64,119,184,135,73,200,112,249,14,224]}},{"VILLAGE_ID":{"type":"Buffer","data":[26,108,252,121,151,55,73,107,190,143,118,162,111,89,54,108]},"CODE":"B00180JB4O","NAME":"金马新村","TYPE":"商务住宅;住宅区;住宅小区","ADDRESS":"新蔡线与马三家中街交叉口西北150米","X":123.246132,"Y":41.898993999999995,"LNG":123.246132,"LAT":41.898993999999995,"BOUNDS":null,"MEMO":null,"HOUSEHOLDS":null,"IS_VALID":1,"SOURCE":"高德","CREATE_DATE":"2019-12-11T02:12:57.000Z","COMMUNITY_ID":null,"COUNTY_ID":{"type":"Buffer","data":[212,69,100,198,154,247,64,119,184,135,73,200,112,249,14,224]}},{"VILLAGE_ID":{"type":"Buffer","data":[206,64,195,124,135,76,76,23,177,186,108,203,233,245,211,255]},"CODE":"B00180499C","NAME":"红田美林居","TYPE":"商务住宅;住宅区;住宅小区","ADDRESS":"怒江北街18号(辽宁大学西北门1000米)","X":123.396483,"Y":41.849325,"LNG":123.396483,"LAT":41.849325,"BOUNDS":null,"MEMO":null,"HOUSEHOLDS":null,"IS_VALID":1,"SOURCE":"高德","CREATE_DATE":"2019-12-11T02:12:57.000Z","COMMUNITY_ID":null,"COUNTY_ID":{"type":"Buffer","data":[212,69,100,198,154,247,64,119,184,135,73,200,112,249,14,224]}},{"VILLAGE_ID":{"type":"Buffer","data":[56,218,67,210,237,97,72,70,141,11,219,192,185,203,12,234]},"CODE":"B00181BVVC","NAME":"意大利风情小镇","TYPE":"商务住宅;住宅区;住宅小区","ADDRESS":"广业西路24号","X":123.322666,"Y":41.837527,"LNG":123.322666,"LAT":41.837527,"BOUNDS":null,"MEMO":null,"HOUSEHOLDS":null,"IS_VALID":1,"SOURCE":"高德","CREATE_DATE":"2019-12-11T02:12:57.000Z","COMMUNITY_ID":null,"COUNTY_ID":{"type":"Buffer","data":[212,69,100,198,154,247,64,119,184,135,73,200,112,249,14,224]}},{"VILLAGE_ID":{"type":"Buffer","data":[190,108,94,255,75,91,70,10,173,135,196,215,20,11,117,14]},"CODE":"B00180JDN8","NAME":"阳光维也纳","TYPE":"商务住宅;住宅区;住宅小区","ADDRESS":"黄河北大街120号","X":123.41476,"Y":41.880655,"LNG":123.41476,"LAT":41.880655,"BOUNDS":null,"MEMO":null,"HOUSEHOLDS":null,"IS_VALID":1,"SOURCE":"高德","CREATE_DATE":"2019-12-11T02:12:57.000Z","COMMUNITY_ID":null,"COUNTY_ID":{"type":"Buffer","data":[212,69,100,198,154,247,64,119,184,135,73,200,112,249,14,224]}},{"VILLAGE_ID":{"type":"Buffer","data":[245,140,50,103,213,122,66,29,165,138,2,200,147,58,17,204]},"CODE":"B00180JE4E","NAME":"金厦太湖湾","TYPE":"商务住宅;住宅区;住宅小区","ADDRESS":"黄海路36-5号","X":123.303957,"Y":41.795435999999995,"LNG":123.303957,"LAT":41.795435999999995,"BOUNDS":null,"MEMO":null,"HOUSEHOLDS":null,"IS_VALID":1,"SOURCE":"高德","CREATE_DATE":"2019-12-11T02:12:57.000Z","COMMUNITY_ID":null,"COUNTY_ID":{"type":"Buffer","data":[212,69,100,198,154,247,64,119,184,135,73,200,112,249,14,224]}},{"VILLAGE_ID":{"type":"Buffer","data":[16,118,83,216,192,13,66,29,155,79,236,181,153,75,13,31]},"CODE":"B00180FLID","NAME":"闲庭花园","TYPE":"商务住宅;住宅区;住宅小区","ADDRESS":"长江北街2-46号","X":123.406903,"Y":41.839560999999996,"LNG":123.406903,"LAT":41.839560999999996,"BOUNDS":null,"MEMO":null,"HOUSEHOLDS":null,"IS_VALID":1,"SOURCE":"高德","CREATE_DATE":"2019-12-11T02:12:57.000Z","COMMUNITY_ID":null,"COUNTY_ID":{"type":"Buffer","data":[212,69,100,198,154,247,64,119,184,135,73,200,112,249,14,224]}},{"VILLAGE_ID":{"type":"Buffer","data":[116,158,19,206,240,14,79,225,153,248,165,237,35,73,252,218]},"CODE":"B00181792N","NAME":"银亿德郡","TYPE":"商务住宅;住宅区;住宅小区","ADDRESS":"北陵街道怒江北街辉山西路","X":123.399911,"Y":41.882751999999996,"LNG":123.399911,"LAT":41.882751999999996,"BOUNDS":null,"MEMO":null,"HOUSEHOLDS":null,"IS_VALID":1,"SOURCE":"高德","CREATE_DATE":"2019-12-11T02:12:57.000Z","COMMUNITY_ID":null,"COUNTY_ID":{"type":"Buffer","data":[212,69,100,198,154,247,64,119,184,135,73,200,112,249,14,224]}},{"VILLAGE_ID":{"type":"Buffer","data":[17,237,71,53,254,203,72,100,159,78,121,28,31,34,6,21]},"CODE":"B00180JE6B","NAME":"海逸诗阁1期B区","TYPE":"商务住宅;住宅区;住宅小区","ADDRESS":"西湖街西150米","X":123.287536,"Y":41.7852,"LNG":123.287536,"LAT":41.7852,"BOUNDS":null,"MEMO":null,"HOUSEHOLDS":null,"IS_VALID":1,"SOURCE":"高德","CREATE_DATE":"2019-12-11T02:12:57.000Z","COMMUNITY_ID":null,"COUNTY_ID":{"type":"Buffer","data":[212,69,100,198,154,247,64,119,184,135,73,200,112,249,14,224]}},{"VILLAGE_ID":{"type":"Buffer","data":[74,23,8,229,249,160,68,154,189,13,78,172,61,188,161,153]},"CODE":"B00180JB2V","NAME":"韩村园","TYPE":"商务住宅;住宅区;住宅小区","ADDRESS":"白山路40号","X":123.3999,"Y":41.860952,"LNG":123.3999,"LAT":41.860952,"BOUNDS":null,"MEMO":null,"HOUSEHOLDS":null,"IS_VALID":1,"SOURCE":"高德","CREATE_DATE":"2019-12-11T02:12:57.000Z","COMMUNITY_ID":null,"COUNTY_ID":{"type":"Buffer","data":[212,69,100,198,154,247,64,119,184,135,73,200,112,249,14,224]}},{"VILLAGE_ID":{"type":"Buffer","data":[212,221,54,72,100,147,79,231,185,12,72,84,26,192,238,72]},"CODE":"B00180K562","NAME":"民安康城","TYPE":"商务住宅;住宅区;住宅小区","ADDRESS":"黄海路57-5号","X":123.298307,"Y":41.792705999999995,"LNG":123.298307,"LAT":41.792705999999995,"BOUNDS":null,"MEMO":null,"HOUSEHOLDS":null,"IS_VALID":1,"SOURCE":"高德","CREATE_DATE":"2019-12-11T02:12:57.000Z","COMMUNITY_ID":null,"COUNTY_ID":{"type":"Buffer","data":[212,69,100,198,154,247,64,119,184,135,73,200,112,249,14,224]}},{"VILLAGE_ID":{"type":"Buffer","data":[64,236,100,153,199,178,68,249,148,217,59,209,176,150,212,186]},"CODE":"B0FFH2A6L9","NAME":"体校家属楼","TYPE":"商务住宅;住宅区;住宅小区","ADDRESS":"陵西街近河巷4-2号","X":123.404748,"Y":41.842903,"LNG":123.404748,"LAT":41.842903,"BOUNDS":null,"MEMO":null,"HOUSEHOLDS":null,"IS_VALID":1,"SOURCE":"高德","CREATE_DATE":"2019-12-11T02:12:57.000Z","COMMUNITY_ID":null,"COUNTY_ID":{"type":"Buffer","data":[212,69,100,198,154,247,64,119,184,135,73,200,112,249,14,224]}},{"VILLAGE_ID":{"type":"Buffer","data":[213,114,140,65,111,153,71,239,169,83,68,6,226,28,26,35]},"CODE":"B0FFIPTSMI","NAME":"居家无忧社区(丁香店)","TYPE":"商务住宅;住宅区;住宅小区","ADDRESS":"广业西路19号","X":123.33145,"Y":41.837239,"LNG":123.33145,"LAT":41.837239,"BOUNDS":null,"MEMO":null,"HOUSEHOLDS":null,"IS_VALID":1,"SOURCE":"高德","CREATE_DATE":"2019-12-11T02:12:57.000Z","COMMUNITY_ID":null,"COUNTY_ID":{"type":"Buffer","data":[212,69,100,198,154,247,64,119,184,135,73,200,112,249,14,224]}},{"VILLAGE_ID":{"type":"Buffer","data":[2,30,11,101,66,162,68,107,165,207,92,249,82,198,94,73]},"CODE":"B0FFGXF3WD","NAME":"卓尔·10号公馆","TYPE":"商务住宅;住宅区;住宅小区","ADDRESS":"元江街20号","X":123.352111,"Y":41.851265999999995,"LNG":123.352111,"LAT":41.851265999999995,"BOUNDS":null,"MEMO":null,"HOUSEHOLDS":null,"IS_VALID":1,"SOURCE":"高德","CREATE_DATE":"2019-12-11T02:12:57.000Z","COMMUNITY_ID":null,"COUNTY_ID":{"type":"Buffer","data":[212,69,100,198,154,247,64,119,184,135,73,200,112,249,14,224]}},{"VILLAGE_ID":{"type":"Buffer","data":[248,125,111,111,78,60,71,184,189,104,216,15,59,3,55,110]},"CODE":"B0FFGALVZR","NAME":"离干小区","TYPE":"商务住宅;住宅区;住宅小区","ADDRESS":"黄河北大街6号","X":123.418773,"Y":41.84617,"LNG":123.418773,"LAT":41.84617,"BOUNDS":null,"MEMO":null,"HOUSEHOLDS":null,"IS_VALID":1,"SOURCE":"高德","CREATE_DATE":"2019-12-11T02:12:57.000Z","COMMUNITY_ID":null,"COUNTY_ID":{"type":"Buffer","data":[212,69,100,198,154,247,64,119,184,135,73,200,112,249,14,224]}},{"VILLAGE_ID":{"type":"Buffer","data":[163,224,70,135,171,204,67,125,163,244,42,108,215,106,82,209]},"CODE":"B00180JB9I","NAME":"靓马花园","TYPE":"商务住宅;住宅区;住宅小区","ADDRESS":"白山路153-5号","X":123.378669,"Y":41.857661,"LNG":123.378669,"LAT":41.857661,"BOUNDS":null,"MEMO":null,"HOUSEHOLDS":null,"IS_VALID":1,"SOURCE":"高德","CREATE_DATE":"2019-12-11T02:12:57.000Z","COMMUNITY_ID":null,"COUNTY_ID":{"type":"Buffer","data":[212,69,100,198,154,247,64,119,184,135,73,200,112,249,14,224]}},{"VILLAGE_ID":{"type":"Buffer","data":[50,101,57,135,156,217,67,52,173,123,229,87,217,58,212,173]},"CODE":"B00180J3AP","NAME":"龙腾金荷苑","TYPE":"商务住宅;住宅区;住宅小区","ADDRESS":"白山路120-7号","X":123.381152,"Y":41.86156,"LNG":123.381152,"LAT":41.86156,"BOUNDS":null,"MEMO":null,"HOUSEHOLDS":null,"IS_VALID":1,"SOURCE":"高德","CREATE_DATE":"2019-12-11T02:12:57.000Z","COMMUNITY_ID":null,"COUNTY_ID":{"type":"Buffer","data":[212,69,100,198,154,247,64,119,184,135,73,200,112,249,14,224]}},{"VILLAGE_ID":{"type":"Buffer","data":[245,56,142,37,32,15,72,151,157,106,150,74,156,147,53,192]},"CODE":"B0FFGMHD2C","NAME":"黄河北大街小区","TYPE":"商务住宅;住宅区;住宅小区","ADDRESS":"黄河北大街龙山路","X":123.413006,"Y":41.845929,"LNG":123.413006,"LAT":41.845929,"BOUNDS":null,"MEMO":null,"HOUSEHOLDS":null,"IS_VALID":1,"SOURCE":"高德","CREATE_DATE":"2019-12-11T02:12:57.000Z","COMMUNITY_ID":null,"COUNTY_ID":{"type":"Buffer","data":[212,69,100,198,154,247,64,119,184,135,73,200,112,249,14,224]}},{"VILLAGE_ID":{"type":"Buffer","data":[157,141,224,12,74,183,72,141,190,112,129,175,6,169,10,29]},"CODE":"B0FFG8DAVD","NAME":"秋实园(青海路)","TYPE":"商务住宅;住宅区;住宅小区","ADDRESS":"镜泊湖街与青海路交叉口东北150米","X":123.369348,"Y":41.761832999999996,"LNG":123.369348,"LAT":41.761832999999996,"BOUNDS":null,"MEMO":null,"HOUSEHOLDS":null,"IS_VALID":1,"SOURCE":"高德","CREATE_DATE":"2019-12-11T02:12:57.000Z","COMMUNITY_ID":null,"COUNTY_ID":{"type":"Buffer","data":[212,69,100,198,154,247,64,119,184,135,73,200,112,249,14,224]}},{"VILLAGE_ID":{"type":"Buffer","data":[143,245,28,215,69,73,74,217,173,27,227,81,40,172,60,110]},"CODE":"B0FFH05HKW","NAME":"松山小区北区","TYPE":"商务住宅;住宅区;住宅小区","ADDRESS":"赤山路","X":123.405136,"Y":41.872501,"LNG":123.405136,"LAT":41.872501,"BOUNDS":null,"MEMO":null,"HOUSEHOLDS":null,"IS_VALID":1,"SOURCE":"高德","CREATE_DATE":"2019-12-11T02:12:57.000Z","COMMUNITY_ID":null,"COUNTY_ID":{"type":"Buffer","data":[212,69,100,198,154,247,64,119,184,135,73,200,112,249,14,224]}},{"VILLAGE_ID":{"type":"Buffer","data":[224,100,20,17,228,49,69,60,153,7,203,167,103,250,93,48]},"CODE":"B0FFJ01DSI","NAME":"云都社区","TYPE":"商务住宅;住宅区;住宅小区","ADDRESS":"白山路60-11号2门","X":123.389899,"Y":41.863448999999996,"LNG":123.389899,"LAT":41.863448999999996,"BOUNDS":null,"MEMO":null,"HOUSEHOLDS":null,"IS_VALID":1,"SOURCE":"高德","CREATE_DATE":"2019-12-11T02:12:57.000Z","COMMUNITY_ID":null,"COUNTY_ID":{"type":"Buffer","data":[212,69,100,198,154,247,64,119,184,135,73,200,112,249,14,224]}},{"VILLAGE_ID":{"type":"Buffer","data":[117,194,39,240,3,31,68,185,154,61,234,232,107,119,33,154]},"CODE":"B0FFH27AXN","NAME":"格林社区","TYPE":"商务住宅;住宅区;住宅小区","ADDRESS":"长江北街58-38号","X":123.402013,"Y":41.849140999999996,"LNG":123.402013,"LAT":41.849140999999996,"BOUNDS":null,"MEMO":null,"HOUSEHOLDS":null,"IS_VALID":1,"SOURCE":"高德","CREATE_DATE":"2019-12-11T02:12:57.000Z","COMMUNITY_ID":null,"COUNTY_ID":{"type":"Buffer","data":[212,69,100,198,154,247,64,119,184,135,73,200,112,249,14,224]}},{"VILLAGE_ID":{"type":"Buffer","data":[121,251,205,8,115,64,65,35,180,72,28,217,0,182,89,221]},"CODE":"B0FFFGVVDD","NAME":"阳光100国际新城D区","TYPE":"商务住宅;住宅区;住宅小区","ADDRESS":"洱海路南150米","X":123.364938,"Y":41.754476,"LNG":123.364938,"LAT":41.754476,"BOUNDS":null,"MEMO":null,"HOUSEHOLDS":null,"IS_VALID":1,"SOURCE":"高德","CREATE_DATE":"2019-12-11T02:12:57.000Z","COMMUNITY_ID":null,"COUNTY_ID":{"type":"Buffer","data":[212,69,100,198,154,247,64,119,184,135,73,200,112,249,14,224]}},{"VILLAGE_ID":{"type":"Buffer","data":[23,172,203,198,14,29,66,116,167,96,2,134,187,18,103,17]},"CODE":"B0FFJ0BZ3I","NAME":"纳智智慧服务社区","TYPE":"商务住宅;住宅区;住宅小区","ADDRESS":"广业西路南100米","X":123.330364,"Y":41.837095999999995,"LNG":123.330364,"LAT":41.837095999999995,"BOUNDS":null,"MEMO":null,"HOUSEHOLDS":null,"IS_VALID":1,"SOURCE":"高德","CREATE_DATE":"2019-12-11T02:12:57.000Z","COMMUNITY_ID":null,"COUNTY_ID":{"type":"Buffer","data":[212,69,100,198,154,247,64,119,184,135,73,200,112,249,14,224]}},{"VILLAGE_ID":{"type":"Buffer","data":[220,24,113,66,158,187,79,143,170,132,240,244,228,80,240,14]},"CODE":"B00180JZGV","NAME":"文林苑","TYPE":"商务住宅;住宅区;住宅小区","ADDRESS":"蒲河南路南100米","X":123.35337200000001,"Y":41.919578,"LNG":123.35337200000001,"LAT":41.919578,"BOUNDS":null,"MEMO":null,"HOUSEHOLDS":null,"IS_VALID":1,"SOURCE":"高德","CREATE_DATE":"2019-12-11T02:12:57.000Z","COMMUNITY_ID":null,"COUNTY_ID":{"type":"Buffer","data":[212,69,100,198,154,247,64,119,184,135,73,200,112,249,14,224]}},{"VILLAGE_ID":{"type":"Buffer","data":[140,162,252,218,187,181,71,34,140,74,19,140,50,76,62,77]},"CODE":"B0FFKNEE55","NAME":"居家无居社区(龙腾店)","TYPE":"商务住宅;住宅区;住宅小区","ADDRESS":"长江北街2-18号-3门龙腾社区","X":123.408844,"Y":41.838983999999996,"LNG":123.408844,"LAT":41.838983999999996,"BOUNDS":null,"MEMO":null,"HOUSEHOLDS":null,"IS_VALID":1,"SOURCE":"高德","CREATE_DATE":"2019-12-11T02:12:57.000Z","COMMUNITY_ID":null,"COUNTY_ID":{"type":"Buffer","data":[212,69,100,198,154,247,64,119,184,135,73,200,112,249,14,224]}},{"VILLAGE_ID":{"type":"Buffer","data":[153,111,179,180,125,160,79,183,184,37,83,224,67,5,176,45]},"CODE":"B0FFGOXUHV","NAME":"尚书微公馆","TYPE":"商务住宅;住宅区;住宅小区","ADDRESS":"黄河北大街118甲号(阳光维也纳南侧)","X":123.41547299999999,"Y":41.879208,"LNG":123.41547299999999,"LAT":41.879208,"BOUNDS":null,"MEMO":null,"HOUSEHOLDS":null,"IS_VALID":1,"SOURCE":"高德","CREATE_DATE":"2019-12-11T02:12:57.000Z","COMMUNITY_ID":null,"COUNTY_ID":{"type":"Buffer","data":[212,69,100,198,154,247,64,119,184,135,73,200,112,249,14,224]}},{"VILLAGE_ID":{"type":"Buffer","data":[111,132,5,129,21,75,75,58,159,252,134,173,209,161,35,39]},"CODE":"B0FFG7NJFH","NAME":"松山安居小区西区","TYPE":"商务住宅;住宅区;住宅小区","ADDRESS":"黑山路10-22号","X":123.405193,"Y":41.87059,"LNG":123.405193,"LAT":41.87059,"BOUNDS":null,"MEMO":null,"HOUSEHOLDS":null,"IS_VALID":1,"SOURCE":"高德","CREATE_DATE":"2019-12-11T02:12:57.000Z","COMMUNITY_ID":null,"COUNTY_ID":{"type":"Buffer","data":[212,69,100,198,154,247,64,119,184,135,73,200,112,249,14,224]}},{"VILLAGE_ID":{"type":"Buffer","data":[53,52,10,103,129,254,73,236,152,160,244,26,61,230,246,65]},"CODE":"B0FFG8PY4A","NAME":"亚都名苑逸林","TYPE":"商务住宅;住宅区;住宅小区","ADDRESS":"白山路46号","X":123.396447,"Y":41.862587999999995,"LNG":123.396447,"LAT":41.862587999999995,"BOUNDS":null,"MEMO":null,"HOUSEHOLDS":null,"IS_VALID":1,"SOURCE":"高德","CREATE_DATE":"2019-12-11T02:12:57.000Z","COMMUNITY_ID":null,"COUNTY_ID":{"type":"Buffer","data":[212,69,100,198,154,247,64,119,184,135,73,200,112,249,14,224]}},{"VILLAGE_ID":{"type":"Buffer","data":[146,98,201,194,201,182,72,65,187,133,54,176,18,106,201,80]},"CODE":"B0FFK5Q8IW","NAME":"绿园小区","TYPE":"商务住宅;住宅区;住宅小区","ADDRESS":"近河巷4-1号东90米","X":123.408072,"Y":41.84135,"LNG":123.408072,"LAT":41.84135,"BOUNDS":null,"MEMO":null,"HOUSEHOLDS":null,"IS_VALID":1,"SOURCE":"高德","CREATE_DATE":"2019-12-11T02:12:57.000Z","COMMUNITY_ID":null,"COUNTY_ID":{"type":"Buffer","data":[212,69,100,198,154,247,64,119,184,135,73,200,112,249,14,224]}},{"VILLAGE_ID":{"type":"Buffer","data":[203,210,201,93,217,161,72,205,189,13,34,223,239,17,248,193]},"CODE":"B0FFH2GTQO","NAME":"郑家小区","TYPE":"商务住宅;住宅区;住宅小区","ADDRESS":"沈辽路22-4号","X":123.326667,"Y":41.771485,"LNG":123.326667,"LAT":41.771485,"BOUNDS":null,"MEMO":null,"HOUSEHOLDS":null,"IS_VALID":1,"SOURCE":"高德","CREATE_DATE":"2019-12-11T02:12:57.000Z","COMMUNITY_ID":null,"COUNTY_ID":{"type":"Buffer","data":[212,69,100,198,154,247,64,119,184,135,73,200,112,249,14,224]}},{"VILLAGE_ID":{"type":"Buffer","data":[159,194,180,204,136,110,77,94,189,41,123,132,82,63,241,1]},"CODE":"B0FFG8C6VS","NAME":"靶场小区","TYPE":"商务住宅;住宅区;住宅小区","ADDRESS":"陵西街近河巷4-1号","X":123.40525,"Y":41.85134,"LNG":123.40525,"LAT":41.85134,"BOUNDS":null,"MEMO":null,"HOUSEHOLDS":null,"IS_VALID":1,"SOURCE":"高德","CREATE_DATE":"2019-12-11T02:12:57.000Z","COMMUNITY_ID":null,"COUNTY_ID":{"type":"Buffer","data":[212,69,100,198,154,247,64,119,184,135,73,200,112,249,14,224]}},{"VILLAGE_ID":{"type":"Buffer","data":[98,13,238,125,62,244,75,114,131,90,125,130,100,113,89,79]},"CODE":"B0FFGMP49Z","NAME":"慧泽园社区","TYPE":"商务住宅;住宅区;住宅小区","ADDRESS":"大通湖街134-3号4门","X":123.335161,"Y":41.758464,"LNG":123.335161,"LAT":41.758464,"BOUNDS":null,"MEMO":null,"HOUSEHOLDS":null,"IS_VALID":1,"SOURCE":"高德","CREATE_DATE":"2019-12-11T02:12:57.000Z","COMMUNITY_ID":null,"COUNTY_ID":{"type":"Buffer","data":[212,69,100,198,154,247,64,119,184,135,73,200,112,249,14,224]}},{"VILLAGE_ID":{"type":"Buffer","data":[9,150,251,2,248,198,75,115,149,75,147,191,195,200,210,229]},"CODE":"B0FFHS7TPT","NAME":"和粉生态社区","TYPE":"商务住宅;住宅区;住宅小区","ADDRESS":"东湖街16-甲1-2号-6门","X":123.314235,"Y":41.797402999999996,"LNG":123.314235,"LAT":41.797402999999996,"BOUNDS":null,"MEMO":null,"HOUSEHOLDS":null,"IS_VALID":1,"SOURCE":"高德","CREATE_DATE":"2019-12-11T02:12:57.000Z","COMMUNITY_ID":null,"COUNTY_ID":{"type":"Buffer","data":[212,69,100,198,154,247,64,119,184,135,73,200,112,249,14,224]}},{"VILLAGE_ID":{"type":"Buffer","data":[115,118,5,144,252,198,70,167,149,219,61,189,191,93,60,127]},"CODE":"B0FFINE06R","NAME":"新湖国际2期","TYPE":"商务住宅;住宅区;住宅小区","ADDRESS":"北固山路与川江街交叉口东北200米","X":123.412755,"Y":41.867671,"LNG":123.412755,"LAT":41.867671,"BOUNDS":null,"MEMO":null,"HOUSEHOLDS":null,"IS_VALID":1,"SOURCE":"高德","CREATE_DATE":"2019-12-11T02:12:57.000Z","COMMUNITY_ID":null,"COUNTY_ID":{"type":"Buffer","data":[212,69,100,198,154,247,64,119,184,135,73,200,112,249,14,224]}},{"VILLAGE_ID":{"type":"Buffer","data":[195,99,48,89,201,192,76,25,131,215,224,3,134,97,54,74]},"CODE":"B0FFHQCPU7","NAME":"南阳湖社区","TYPE":"商务住宅;住宅区;住宅小区","ADDRESS":"青海西路34-1号","X":123.317359,"Y":41.759291999999995,"LNG":123.317359,"LAT":41.759291999999995,"BOUNDS":null,"MEMO":null,"HOUSEHOLDS":null,"IS_VALID":1,"SOURCE":"高德","CREATE_DATE":"2019-12-11T02:12:57.000Z","COMMUNITY_ID":null,"COUNTY_ID":{"type":"Buffer","data":[212,69,100,198,154,247,64,119,184,135,73,200,112,249,14,224]}},{"VILLAGE_ID":{"type":"Buffer","data":[201,9,55,186,164,160,68,127,145,222,157,75,175,192,188,13]},"CODE":"B0FFI1G4FN","NAME":"新加坡花园二期","TYPE":"商务住宅;住宅区;住宅小区","ADDRESS":null,"X":123.32324,"Y":41.74981,"LNG":123.32324,"LAT":41.74981,"BOUNDS":null,"MEMO":null,"HOUSEHOLDS":null,"IS_VALID":1,"SOURCE":"高德","CREATE_DATE":"2019-12-11T02:12:57.000Z","COMMUNITY_ID":null,"COUNTY_ID":{"type":"Buffer","data":[212,69,100,198,154,247,64,119,184,135,73,200,112,249,14,224]}},{"VILLAGE_ID":{"type":"Buffer","data":[222,51,233,68,120,143,75,103,132,14,89,229,243,228,1,180]},"CODE":"B00180IV0N","NAME":"格林MINI","TYPE":"商务住宅;住宅区;住宅小区","ADDRESS":"怒江北街23甲","X":123.398998,"Y":41.850243999999996,"LNG":123.398998,"LAT":41.850243999999996,"BOUNDS":null,"MEMO":null,"HOUSEHOLDS":null,"IS_VALID":1,"SOURCE":"高德","CREATE_DATE":"2019-12-11T02:12:57.000Z","COMMUNITY_ID":null,"COUNTY_ID":{"type":"Buffer","data":[212,69,100,198,154,247,64,119,184,135,73,200,112,249,14,224]}},{"VILLAGE_ID":{"type":"Buffer","data":[229,163,34,243,106,246,77,225,171,184,211,206,243,247,164,14]},"CODE":"B0FFHUL0JX","NAME":"保利海德公园","TYPE":"商务住宅;住宅区;住宅小区","ADDRESS":"沈辽路与大明湖街交汇处西南角","X":123.294554,"Y":41.757799,"LNG":123.294554,"LAT":41.757799,"BOUNDS":null,"MEMO":null,"HOUSEHOLDS":null,"IS_VALID":1,"SOURCE":"高德","CREATE_DATE":"2019-12-11T02:12:57.000Z","COMMUNITY_ID":null,"COUNTY_ID":{"type":"Buffer","data":[212,69,100,198,154,247,64,119,184,135,73,200,112,249,14,224]}},{"VILLAGE_ID":{"type":"Buffer","data":[47,252,89,4,123,101,71,61,153,212,124,231,243,227,174,4]},"CODE":"B0FFI1RYFX","NAME":"环北家园一期","TYPE":"商务住宅;住宅区;住宅小区","ADDRESS":"黄河北大街206号","X":123.380702,"Y":41.893100000000004,"LNG":123.380702,"LAT":41.893100000000004,"BOUNDS":null,"MEMO":null,"HOUSEHOLDS":null,"IS_VALID":1,"SOURCE":"高德","CREATE_DATE":"2019-12-11T02:12:57.000Z","COMMUNITY_ID":null,"COUNTY_ID":{"type":"Buffer","data":[212,69,100,198,154,247,64,119,184,135,73,200,112,249,14,224]}},{"VILLAGE_ID":{"type":"Buffer","data":[250,11,227,175,74,217,79,245,131,157,146,126,131,116,137,221]},"CODE":"B0FFHDJJZQ","NAME":"碧桂园银河城繁华里","TYPE":"商务住宅;住宅区;住宅小区","ADDRESS":"汪河路与洪泽湖街交叉口南100米","X":123.348902,"Y":41.752373999999996,"LNG":123.348902,"LAT":41.752373999999996,"BOUNDS":null,"MEMO":null,"HOUSEHOLDS":null,"IS_VALID":1,"SOURCE":"高德","CREATE_DATE":"2019-12-11T02:12:57.000Z","COMMUNITY_ID":null,"COUNTY_ID":{"type":"Buffer","data":[212,69,100,198,154,247,64,119,184,135,73,200,112,249,14,224]}},{"VILLAGE_ID":{"type":"Buffer","data":[206,149,0,205,170,144,77,112,161,253,59,129,137,126,212,226]},"CODE":"B0FFHUMTD6","NAME":"保利·观唐","TYPE":"商务住宅;住宅区;住宅小区","ADDRESS":"甘河街与青城山路交叉口东50米","X":123.378812,"Y":41.890944999999995,"LNG":123.378812,"LAT":41.890944999999995,"BOUNDS":null,"MEMO":null,"HOUSEHOLDS":null,"IS_VALID":1,"SOURCE":"高德","CREATE_DATE":"2019-12-11T02:12:57.000Z","COMMUNITY_ID":null,"COUNTY_ID":{"type":"Buffer","data":[212,69,100,198,154,247,64,119,184,135,73,200,112,249,14,224]}},{"VILLAGE_ID":{"type":"Buffer","data":[247,201,75,112,180,236,70,0,142,229,33,14,147,4,71,220]},"CODE":"B0FFI8X2SC","NAME":"东药小区","TYPE":"商务住宅;住宅区;住宅小区","ADDRESS":"塔湾车行对面","X":123.34964,"Y":41.835,"LNG":123.34964,"LAT":41.835,"BOUNDS":null,"MEMO":null,"HOUSEHOLDS":null,"IS_VALID":1,"SOURCE":"高德","CREATE_DATE":"2019-12-11T02:12:57.000Z","COMMUNITY_ID":null,"COUNTY_ID":{"type":"Buffer","data":[212,69,100,198,154,247,64,119,184,135,73,200,112,249,14,224]}},{"VILLAGE_ID":{"type":"Buffer","data":[32,149,211,122,216,139,73,153,144,246,19,2,182,119,74,131]},"CODE":"B0FFI0SYZ1","NAME":"造化第三小区","TYPE":"商务住宅;住宅区;住宅小区","ADDRESS":null,"X":123.358899,"Y":41.888991999999995,"LNG":123.358899,"LAT":41.888991999999995,"BOUNDS":null,"MEMO":null,"HOUSEHOLDS":null,"IS_VALID":1,"SOURCE":"高德","CREATE_DATE":"2019-12-11T02:12:57.000Z","COMMUNITY_ID":null,"COUNTY_ID":{"type":"Buffer","data":[212,69,100,198,154,247,64,119,184,135,73,200,112,249,14,224]}},{"VILLAGE_ID":{"type":"Buffer","data":[71,249,148,80,45,45,75,195,154,219,47,214,202,193,58,198]},"CODE":"B0FFIDUIO2","NAME":"和谐港湾","TYPE":"商务住宅;住宅区;住宅小区","ADDRESS":"北固山路与长江北街交叉口西50米","X":123.40655,"Y":41.866428,"LNG":123.40655,"LAT":41.866428,"BOUNDS":null,"MEMO":null,"HOUSEHOLDS":null,"IS_VALID":1,"SOURCE":"高德","CREATE_DATE":"2019-12-11T02:12:57.000Z","COMMUNITY_ID":null,"COUNTY_ID":{"type":"Buffer","data":[212,69,100,198,154,247,64,119,184,135,73,200,112,249,14,224]}},{"VILLAGE_ID":{"type":"Buffer","data":[159,184,21,134,208,193,74,185,183,191,179,69,105,67,175,123]},"CODE":"B0FFHHART7","NAME":"环北家园二期","TYPE":"商务住宅;住宅区;住宅小区","ADDRESS":"青城山路附近","X":123.38181900000001,"Y":41.891186999999995,"LNG":123.38181900000001,"LAT":41.891186999999995,"BOUNDS":null,"MEMO":null,"HOUSEHOLDS":null,"IS_VALID":1,"SOURCE":"高德","CREATE_DATE":"2019-12-11T02:12:57.000Z","COMMUNITY_ID":null,"COUNTY_ID":{"type":"Buffer","data":[212,69,100,198,154,247,64,119,184,135,73,200,112,249,14,224]}},{"VILLAGE_ID":{"type":"Buffer","data":[68,250,99,77,142,202,70,225,145,91,109,38,237,118,235,142]},"CODE":"B0FFIB2UGP","NAME":"于洪南里小区","TYPE":"商务住宅;住宅区;住宅小区","ADDRESS":"东湖街南50米","X":123.313916,"Y":41.799476999999996,"LNG":123.313916,"LAT":41.799476999999996,"BOUNDS":null,"MEMO":null,"HOUSEHOLDS":null,"IS_VALID":1,"SOURCE":"高德","CREATE_DATE":"2019-12-11T02:12:57.000Z","COMMUNITY_ID":null,"COUNTY_ID":{"type":"Buffer","data":[212,69,100,198,154,247,64,119,184,135,73,200,112,249,14,224]}},{"VILLAGE_ID":{"type":"Buffer","data":[205,134,110,152,234,37,65,71,180,65,237,89,135,39,166,156]},"CODE":"B0FFH2AX54","NAME":"凯城社区","TYPE":"商务住宅;住宅区;住宅小区","ADDRESS":"吉力湖街18号6门","X":123.36547999999999,"Y":41.757332,"LNG":123.36547999999999,"LAT":41.757332,"BOUNDS":null,"MEMO":null,"HOUSEHOLDS":null,"IS_VALID":1,"SOURCE":"高德","CREATE_DATE":"2019-12-11T02:12:57.000Z","COMMUNITY_ID":null,"COUNTY_ID":{"type":"Buffer","data":[212,69,100,198,154,247,64,119,184,135,73,200,112,249,14,224]}},{"VILLAGE_ID":{"type":"Buffer","data":[23,152,176,146,93,251,74,228,137,38,173,187,227,226,123,27]},"CODE":"B0FFHWXFCB","NAME":"蒲河湾小区","TYPE":"商务住宅;住宅区;住宅小区","ADDRESS":"沈北西路82-6号","X":123.339489,"Y":41.912870999999996,"LNG":123.339489,"LAT":41.912870999999996,"BOUNDS":null,"MEMO":null,"HOUSEHOLDS":null,"IS_VALID":1,"SOURCE":"高德","CREATE_DATE":"2019-12-11T02:12:57.000Z","COMMUNITY_ID":null,"COUNTY_ID":{"type":"Buffer","data":[212,69,100,198,154,247,64,119,184,135,73,200,112,249,14,224]}},{"VILLAGE_ID":{"type":"Buffer","data":[184,80,53,186,131,139,64,243,173,239,134,1,216,171,108,72]},"CODE":"B0018164IT","NAME":"丽晶书香院","TYPE":"商务住宅;住宅区;住宅小区","ADDRESS":"黄河北大街137-139号","X":123.416548,"Y":41.891417,"LNG":123.416548,"LAT":41.891417,"BOUNDS":null,"MEMO":null,"HOUSEHOLDS":null,"IS_VALID":1,"SOURCE":"高德","CREATE_DATE":"2019-12-11T02:12:57.000Z","COMMUNITY_ID":null,"COUNTY_ID":{"type":"Buffer","data":[212,69,100,198,154,247,64,119,184,135,73,200,112,249,14,224]}},{"VILLAGE_ID":{"type":"Buffer","data":[230,146,22,214,65,95,65,138,151,121,188,151,229,149,16,23]},"CODE":"B00180IV4C","NAME":"航苑花园","TYPE":"商务住宅;住宅区;住宅小区","ADDRESS":"北陵街道长江北街72-12-3-1","X":123.405508,"Y":41.854757,"LNG":123.405508,"LAT":41.854757,"BOUNDS":null,"MEMO":null,"HOUSEHOLDS":null,"IS_VALID":1,"SOURCE":"高德","CREATE_DATE":"2019-12-11T02:12:57.000Z","COMMUNITY_ID":null,"COUNTY_ID":{"type":"Buffer","data":[212,69,100,198,154,247,64,119,184,135,73,200,112,249,14,224]}},{"VILLAGE_ID":{"type":"Buffer","data":[244,112,13,17,116,26,78,88,175,253,223,79,119,24,179,46]},"CODE":"B0FFJFLF8U","NAME":"于洪区陵西街道龙腾社区","TYPE":"商务住宅;住宅区;住宅小区","ADDRESS":"长江北街2-18号3门","X":123.408778,"Y":41.838912,"LNG":123.408778,"LAT":41.838912,"BOUNDS":null,"MEMO":null,"HOUSEHOLDS":null,"IS_VALID":1,"SOURCE":"高德","CREATE_DATE":"2019-12-11T02:12:57.000Z","COMMUNITY_ID":null,"COUNTY_ID":{"type":"Buffer","data":[212,69,100,198,154,247,64,119,184,135,73,200,112,249,14,224]}},{"VILLAGE_ID":{"type":"Buffer","data":[64,108,104,15,184,129,79,124,166,231,18,191,118,192,117,14]},"CODE":"B0FFIV5KG5","NAME":"碧桂园大城印象(建设中)","TYPE":"商务住宅;住宅区;住宅小区","ADDRESS":"怒江北街252号","X":123.393119,"Y":41.883731,"LNG":123.393119,"LAT":41.883731,"BOUNDS":null,"MEMO":null,"HOUSEHOLDS":null,"IS_VALID":1,"SOURCE":"高德","CREATE_DATE":"2019-12-11T02:12:57.000Z","COMMUNITY_ID":null,"COUNTY_ID":{"type":"Buffer","data":[212,69,100,198,154,247,64,119,184,135,73,200,112,249,14,224]}},{"VILLAGE_ID":{"type":"Buffer","data":[98,71,120,92,153,72,73,189,167,138,228,0,133,68,124,206]},"CODE":"B00180JQRU","NAME":"安居园","TYPE":"商务住宅;住宅区;住宅小区","ADDRESS":"昆山西路153-18号","X":123.350625,"Y":41.830256999999996,"LNG":123.350625,"LAT":41.830256999999996,"BOUNDS":null,"MEMO":null,"HOUSEHOLDS":null,"IS_VALID":1,"SOURCE":"高德","CREATE_DATE":"2019-12-11T02:12:57.000Z","COMMUNITY_ID":null,"COUNTY_ID":{"type":"Buffer","data":[212,69,100,198,154,247,64,119,184,135,73,200,112,249,14,224]}},{"VILLAGE_ID":{"type":"Buffer","data":[158,231,74,42,7,58,77,154,168,187,79,229,236,105,196,248]},"CODE":"B00181E5J4","NAME":"黄山教师新村","TYPE":"商务住宅;住宅区;住宅小区","ADDRESS":"怒江北街41","X":123.399676,"Y":41.857647,"LNG":123.399676,"LAT":41.857647,"BOUNDS":null,"MEMO":null,"HOUSEHOLDS":null,"IS_VALID":1,"SOURCE":"高德","CREATE_DATE":"2019-12-11T02:12:57.000Z","COMMUNITY_ID":null,"COUNTY_ID":{"type":"Buffer","data":[212,69,100,198,154,247,64,119,184,135,73,200,112,249,14,224]}},{"VILLAGE_ID":{"type":"Buffer","data":[121,188,127,126,101,188,77,158,191,151,235,244,73,220,215,155]},"CODE":"B0FFHM0BHZ","NAME":"于洪区城东湖街道青铜社区","TYPE":"商务住宅;住宅区;住宅小区","ADDRESS":"吉力湖街237-1342号附近","X":123.330376,"Y":41.769542,"LNG":123.330376,"LAT":41.769542,"BOUNDS":null,"MEMO":null,"HOUSEHOLDS":null,"IS_VALID":1,"SOURCE":"高德","CREATE_DATE":"2019-12-11T02:12:57.000Z","COMMUNITY_ID":null,"COUNTY_ID":{"type":"Buffer","data":[212,69,100,198,154,247,64,119,184,135,73,200,112,249,14,224]}},{"VILLAGE_ID":{"type":"Buffer","data":[186,21,200,8,232,180,69,199,128,43,159,15,5,70,227,120]},"CODE":"B0FFKQVWZA","NAME":"天易晶城意大利风情小镇","TYPE":"商务住宅;住宅区;住宅小区","ADDRESS":null,"X":123.320875,"Y":41.838722,"LNG":123.320875,"LAT":41.838722,"BOUNDS":null,"MEMO":null,"HOUSEHOLDS":null,"IS_VALID":1,"SOURCE":"高德","CREATE_DATE":"2019-12-11T02:12:58.000Z","COMMUNITY_ID":null,"COUNTY_ID":{"type":"Buffer","data":[212,69,100,198,154,247,64,119,184,135,73,200,112,249,14,224]}},{"VILLAGE_ID":{"type":"Buffer","data":[51,43,196,167,27,196,66,43,143,157,182,36,78,67,130,48]},"CODE":"B0FFKRQIXK","NAME":"民安·海逸康城(建设中)","TYPE":"商务住宅;住宅区;住宅小区","ADDRESS":"青城山路215号","X":123.365816,"Y":41.881125999999995,"LNG":123.365816,"LAT":41.881125999999995,"BOUNDS":null,"MEMO":null,"HOUSEHOLDS":null,"IS_VALID":1,"SOURCE":"高德","CREATE_DATE":"2019-12-11T02:12:58.000Z","COMMUNITY_ID":null,"COUNTY_ID":{"type":"Buffer","data":[212,69,100,198,154,247,64,119,184,135,73,200,112,249,14,224]}},{"VILLAGE_ID":{"type":"Buffer","data":[178,99,39,88,162,191,76,235,161,37,67,206,208,190,187,123]},"CODE":"B0FFI6Z8ER","NAME":"居家无忧社区(水调歌城店)","TYPE":"商务住宅;住宅区;住宅小区","ADDRESS":"吉力湖街78号","X":123.35522,"Y":41.760456,"LNG":123.35522,"LAT":41.760456,"BOUNDS":null,"MEMO":null,"HOUSEHOLDS":null,"IS_VALID":1,"SOURCE":"高德","CREATE_DATE":"2019-12-11T02:12:58.000Z","COMMUNITY_ID":null,"COUNTY_ID":{"type":"Buffer","data":[212,69,100,198,154,247,64,119,184,135,73,200,112,249,14,224]}},{"VILLAGE_ID":{"type":"Buffer","data":[2,22,213,102,14,211,74,155,139,107,200,118,22,35,43,45]},"CODE":"B00180K3VR","NAME":"盛北馨居","TYPE":"商务住宅;住宅区;住宅小区","ADDRESS":"光辉乡政府东500米","X":123.162611,"Y":41.95147,"LNG":123.162611,"LAT":41.95147,"BOUNDS":null,"MEMO":null,"HOUSEHOLDS":null,"IS_VALID":1,"SOURCE":"高德","CREATE_DATE":"2019-12-11T02:12:58.000Z","COMMUNITY_ID":null,"COUNTY_ID":{"type":"Buffer","data":[212,69,100,198,154,247,64,119,184,135,73,200,112,249,14,224]}},{"VILLAGE_ID":{"type":"Buffer","data":[235,146,46,178,66,218,70,207,188,35,191,203,133,42,197,247]},"CODE":"B0FFI80FEJ","NAME":"居家无忧社区(恒大社区店)","TYPE":"商务住宅;住宅区;住宅小区","ADDRESS":"恒大绿洲","X":123.331738,"Y":41.743196,"LNG":123.331738,"LAT":41.743196,"BOUNDS":null,"MEMO":null,"HOUSEHOLDS":null,"IS_VALID":1,"SOURCE":"高德","CREATE_DATE":"2019-12-11T02:12:58.000Z","COMMUNITY_ID":null,"COUNTY_ID":{"type":"Buffer","data":[212,69,100,198,154,247,64,119,184,135,73,200,112,249,14,224]}},{"VILLAGE_ID":{"type":"Buffer","data":[130,120,153,179,199,180,78,46,168,187,104,167,138,207,102,199]},"CODE":"B00180E86E","NAME":"国源新村","TYPE":"商务住宅;住宅区;住宅小区","ADDRESS":"陵西街近河巷9-2号","X":123.404881,"Y":41.841176,"LNG":123.404881,"LAT":41.841176,"BOUNDS":null,"MEMO":null,"HOUSEHOLDS":null,"IS_VALID":1,"SOURCE":"高德","CREATE_DATE":"2019-12-11T02:12:58.000Z","COMMUNITY_ID":null,"COUNTY_ID":{"type":"Buffer","data":[212,69,100,198,154,247,64,119,184,135,73,200,112,249,14,224]}},{"VILLAGE_ID":{"type":"Buffer","data":[64,45,178,18,46,98,64,19,144,35,188,56,224,221,239,13]},"CODE":"B00181CUOW","NAME":"宏发英树公馆","TYPE":"商务住宅;住宅区;住宅小区","ADDRESS":"仙女河路与吉利湖街交界处","X":123.335909,"Y":41.770148999999996,"LNG":123.335909,"LAT":41.770148999999996,"BOUNDS":null,"MEMO":null,"HOUSEHOLDS":null,"IS_VALID":1,"SOURCE":"高德","CREATE_DATE":"2019-12-11T02:12:58.000Z","COMMUNITY_ID":null,"COUNTY_ID":{"type":"Buffer","data":[212,69,100,198,154,247,64,119,184,135,73,200,112,249,14,224]}},{"VILLAGE_ID":{"type":"Buffer","data":[60,123,148,111,133,63,65,26,151,120,86,181,42,119,218,107]},"CODE":"B00180K9F3","NAME":"和泰八区","TYPE":"商务住宅;住宅区;住宅小区","ADDRESS":"东平湖街36-3号","X":123.284249,"Y":41.803708,"LNG":123.284249,"LAT":41.803708,"BOUNDS":null,"MEMO":null,"HOUSEHOLDS":null,"IS_VALID":1,"SOURCE":"高德","CREATE_DATE":"2019-12-11T02:12:58.000Z","COMMUNITY_ID":null,"COUNTY_ID":{"type":"Buffer","data":[212,69,100,198,154,247,64,119,184,135,73,200,112,249,14,224]}},{"VILLAGE_ID":{"type":"Buffer","data":[183,212,68,65,2,146,70,22,182,204,190,75,24,143,133,46]},"CODE":"B0FFIIKJZQ","NAME":"居家无忧社区(鹏程花园店)","TYPE":"商务住宅;住宅区;住宅小区","ADDRESS":"沈辽路191号-14-2门","X":123.308295,"Y":41.761434,"LNG":123.308295,"LAT":41.761434,"BOUNDS":null,"MEMO":null,"HOUSEHOLDS":null,"IS_VALID":1,"SOURCE":"高德","CREATE_DATE":"2019-12-11T02:12:58.000Z","COMMUNITY_ID":null,"COUNTY_ID":{"type":"Buffer","data":[212,69,100,198,154,247,64,119,184,135,73,200,112,249,14,224]}},{"VILLAGE_ID":{"type":"Buffer","data":[247,169,1,148,179,211,79,178,164,215,121,249,77,113,156,149]},"CODE":"B0FFL79RQV","NAME":"华润·橡树湾红橡公馆2期","TYPE":"商务住宅;住宅区;住宅小区","ADDRESS":null,"X":123.360927,"Y":41.858281,"LNG":123.360927,"LAT":41.858281,"BOUNDS":null,"MEMO":null,"HOUSEHOLDS":null,"IS_VALID":1,"SOURCE":"高德","CREATE_DATE":"2019-12-11T02:12:58.000Z","COMMUNITY_ID":null,"COUNTY_ID":{"type":"Buffer","data":[212,69,100,198,154,247,64,119,184,135,73,200,112,249,14,224]}},{"VILLAGE_ID":{"type":"Buffer","data":[85,188,39,97,176,83,74,161,191,107,40,54,34,59,163,10]},"CODE":"B00181CRHU","NAME":"宏发英里","TYPE":"商务住宅;住宅区;住宅小区","ADDRESS":"汪河路136号","X":123.33162300000001,"Y":41.749556999999996,"LNG":123.33162300000001,"LAT":41.749556999999996,"BOUNDS":null,"MEMO":null,"HOUSEHOLDS":null,"IS_VALID":1,"SOURCE":"高德","CREATE_DATE":"2019-12-11T02:12:58.000Z","COMMUNITY_ID":null,"COUNTY_ID":{"type":"Buffer","data":[212,69,100,198,154,247,64,119,184,135,73,200,112,249,14,224]}},{"VILLAGE_ID":{"type":"Buffer","data":[156,50,207,76,227,68,65,104,163,108,57,114,142,252,61,184]},"CODE":"B00180K92B","NAME":"金成家园","TYPE":"商务住宅;住宅区;住宅小区","ADDRESS":"大兴街道","X":123.270151,"Y":41.855218,"LNG":123.270151,"LAT":41.855218,"BOUNDS":null,"MEMO":null,"HOUSEHOLDS":null,"IS_VALID":1,"SOURCE":"高德","CREATE_DATE":"2019-12-11T02:12:58.000Z","COMMUNITY_ID":null,"COUNTY_ID":{"type":"Buffer","data":[212,69,100,198,154,247,64,119,184,135,73,200,112,249,14,224]}},{"VILLAGE_ID":{"type":"Buffer","data":[205,141,176,207,194,119,65,119,168,159,115,118,82,188,228,142]},"CODE":"B0FFILCIFO","NAME":"居家无忧社区(渤海社区店)","TYPE":"商务住宅;住宅区;住宅小区","ADDRESS":"沈新路62-31号","X":123.311082,"Y":41.782990999999996,"LNG":123.311082,"LAT":41.782990999999996,"BOUNDS":null,"MEMO":null,"HOUSEHOLDS":null,"IS_VALID":1,"SOURCE":"高德","CREATE_DATE":"2019-12-11T02:12:58.000Z","COMMUNITY_ID":null,"COUNTY_ID":{"type":"Buffer","data":[212,69,100,198,154,247,64,119,184,135,73,200,112,249,14,224]}},{"VILLAGE_ID":{"type":"Buffer","data":[195,224,75,189,190,131,73,149,181,210,107,252,178,180,244,43]},"CODE":"B0FFILRLPM","NAME":"居家无忧社区(世代龙城店)","TYPE":"商务住宅;住宅区;住宅小区","ADDRESS":"珍珠巷5号-21门","X":123.303071,"Y":41.797222,"LNG":123.303071,"LAT":41.797222,"BOUNDS":null,"MEMO":null,"HOUSEHOLDS":null,"IS_VALID":1,"SOURCE":"高德","CREATE_DATE":"2019-12-11T02:12:58.000Z","COMMUNITY_ID":null,"COUNTY_ID":{"type":"Buffer","data":[212,69,100,198,154,247,64,119,184,135,73,200,112,249,14,224]}},{"VILLAGE_ID":{"type":"Buffer","data":[36,179,3,132,117,246,78,92,184,96,159,10,226,211,144,107]},"CODE":"B0FFFQ5UK1","NAME":"华润·橡树湾(松山西路)","TYPE":"商务住宅;住宅区;住宅小区","ADDRESS":"白山路180-196号保利上林湾西侧","X":123.358594,"Y":41.855421,"LNG":123.358594,"LAT":41.855421,"BOUNDS":null,"MEMO":null,"HOUSEHOLDS":null,"IS_VALID":1,"SOURCE":"高德","CREATE_DATE":"2019-12-11T02:12:58.000Z","COMMUNITY_ID":null,"COUNTY_ID":{"type":"Buffer","data":[212,69,100,198,154,247,64,119,184,135,73,200,112,249,14,224]}},{"VILLAGE_ID":{"type":"Buffer","data":[252,216,219,63,212,208,64,53,131,215,20,70,167,41,234,197]},"CODE":"B0FFH82CJ1","NAME":"花好悦园","TYPE":"商务住宅;住宅区;住宅小区","ADDRESS":"长江北街93号122号","X":123.407186,"Y":41.864683,"LNG":123.407186,"LAT":41.864683,"BOUNDS":null,"MEMO":null,"HOUSEHOLDS":null,"IS_VALID":1,"SOURCE":"高德","CREATE_DATE":"2019-12-11T02:12:58.000Z","COMMUNITY_ID":null,"COUNTY_ID":{"type":"Buffer","data":[212,69,100,198,154,247,64,119,184,135,73,200,112,249,14,224]}},{"VILLAGE_ID":{"type":"Buffer","data":[158,39,253,85,51,80,71,2,138,217,208,219,5,190,11,105]},"CODE":"B0FFJ0UVLA","NAME":"美的盛堂(建设中)","TYPE":"商务住宅;住宅区;住宅小区","ADDRESS":"汪河南路1号","X":123.324101,"Y":41.741229,"LNG":123.324101,"LAT":41.741229,"BOUNDS":null,"MEMO":null,"HOUSEHOLDS":null,"IS_VALID":1,"SOURCE":"高德","CREATE_DATE":"2019-12-11T02:12:58.000Z","COMMUNITY_ID":null,"COUNTY_ID":{"type":"Buffer","data":[212,69,100,198,154,247,64,119,184,135,73,200,112,249,14,224]}},{"VILLAGE_ID":{"type":"Buffer","data":[49,5,134,126,107,200,76,221,148,216,184,179,17,81,154,127]},"CODE":"B00181795U","NAME":"中油吉力街","TYPE":"商务住宅;住宅区;住宅小区","ADDRESS":"吉力湖街18号","X":123.366841,"Y":41.757808999999995,"LNG":123.366841,"LAT":41.757808999999995,"BOUNDS":null,"MEMO":null,"HOUSEHOLDS":null,"IS_VALID":1,"SOURCE":"高德","CREATE_DATE":"2019-12-11T02:12:58.000Z","COMMUNITY_ID":null,"COUNTY_ID":{"type":"Buffer","data":[212,69,100,198,154,247,64,119,184,135,73,200,112,249,14,224]}},{"VILLAGE_ID":{"type":"Buffer","data":[126,172,162,115,139,200,64,9,136,6,131,49,216,236,7,26]},"CODE":"B00180K5T7","NAME":"沙谷新村","TYPE":"商务住宅;住宅区;住宅小区","ADDRESS":"沙岭街道沙岭路","X":123.205157,"Y":41.791050999999996,"LNG":123.205157,"LAT":41.791050999999996,"BOUNDS":null,"MEMO":null,"HOUSEHOLDS":null,"IS_VALID":1,"SOURCE":"高德","CREATE_DATE":"2019-12-11T02:12:58.000Z","COMMUNITY_ID":null,"COUNTY_ID":{"type":"Buffer","data":[212,69,100,198,154,247,64,119,184,135,73,200,112,249,14,224]}},{"VILLAGE_ID":{"type":"Buffer","data":[21,149,218,133,28,70,68,155,168,45,167,222,27,181,51,14]},"CODE":"B0FFFTENV1","NAME":"黄山教师公寓","TYPE":"商务住宅;住宅区;住宅小区","ADDRESS":"怒江北街41-4号1门附近","X":123.399069,"Y":41.857620999999995,"LNG":123.399069,"LAT":41.857620999999995,"BOUNDS":null,"MEMO":null,"HOUSEHOLDS":null,"IS_VALID":1,"SOURCE":"高德","CREATE_DATE":"2019-12-11T02:12:58.000Z","COMMUNITY_ID":null,"COUNTY_ID":{"type":"Buffer","data":[212,69,100,198,154,247,64,119,184,135,73,200,112,249,14,224]}},{"VILLAGE_ID":{"type":"Buffer","data":[223,9,22,124,19,183,79,210,150,238,17,177,172,47,88,233]},"CODE":"B0FFI32QUG","NAME":"居家无忧社区(红田店)","TYPE":"商务住宅;住宅区;住宅小区","ADDRESS":"怒江北街18-23号附近","X":123.393852,"Y":41.847527,"LNG":123.393852,"LAT":41.847527,"BOUNDS":null,"MEMO":null,"HOUSEHOLDS":null,"IS_VALID":1,"SOURCE":"高德","CREATE_DATE":"2019-12-11T02:12:58.000Z","COMMUNITY_ID":null,"COUNTY_ID":{"type":"Buffer","data":[212,69,100,198,154,247,64,119,184,135,73,200,112,249,14,224]}},{"VILLAGE_ID":{"type":"Buffer","data":[122,204,57,159,15,123,66,144,134,21,139,238,255,38,169,55]},"CODE":"B0FFJV1ICD","NAME":"刘南居民楼","TYPE":"商务住宅;住宅区;住宅小区","ADDRESS":"辽中区潘乌公路西50米","X":122.886882,"Y":41.662455,"LNG":122.886882,"LAT":41.662455,"BOUNDS":null,"MEMO":null,"HOUSEHOLDS":null,"IS_VALID":1,"SOURCE":"高德","CREATE_DATE":"2019-12-11T02:09:27.000Z","COMMUNITY_ID":null,"COUNTY_ID":{"type":"Buffer","data":[92,13,10,232,224,167,66,5,185,100,33,255,123,185,213,137]}},{"VILLAGE_ID":{"type":"Buffer","data":[136,189,222,156,24,128,74,26,182,149,221,179,130,52,7,217]},"CODE":"B0FFK7KBA6","NAME":"安泰家园","TYPE":"商务住宅;住宅区;住宅小区","ADDRESS":"辽中区刘二堡辽中区刘二堡镇委(潘乌线西)","X":122.885811,"Y":41.661204,"LNG":122.885811,"LAT":41.661204,"BOUNDS":null,"MEMO":null,"HOUSEHOLDS":null,"IS_VALID":1,"SOURCE":"高德","CREATE_DATE":"2019-12-11T02:09:27.000Z","COMMUNITY_ID":null,"COUNTY_ID":{"type":"Buffer","data":[92,13,10,232,224,167,66,5,185,100,33,255,123,185,213,137]}},{"VILLAGE_ID":{"type":"Buffer","data":[215,222,250,200,200,98,79,4,181,7,138,255,182,127,168,93]},"CODE":"B0FFKIV833","NAME":"兴隆华府·尚居","TYPE":"商务住宅;住宅区;住宅小区","ADDRESS":"华山路北100米","X":122.879786,"Y":41.515266,"LNG":122.879786,"LAT":41.515266,"BOUNDS":null,"MEMO":null,"HOUSEHOLDS":null,"IS_VALID":1,"SOURCE":"高德","CREATE_DATE":"2019-12-11T02:09:27.000Z","COMMUNITY_ID":null,"COUNTY_ID":{"type":"Buffer","data":[92,13,10,232,224,167,66,5,185,100,33,255,123,185,213,137]}},{"VILLAGE_ID":{"type":"Buffer","data":[235,100,110,152,76,114,70,105,150,140,53,13,131,239,113,168]},"CODE":"B0FFK7Z2DR","NAME":"辽中区馨福楼小区","TYPE":"商务住宅;住宅区;住宅小区","ADDRESS":"辽中区北二路2附近","X":122.734684,"Y":41.516154,"LNG":122.734684,"LAT":41.516154,"BOUNDS":null,"MEMO":null,"HOUSEHOLDS":null,"IS_VALID":1,"SOURCE":"高德","CREATE_DATE":"2019-12-11T02:09:27.000Z","COMMUNITY_ID":null,"COUNTY_ID":{"type":"Buffer","data":[92,13,10,232,224,167,66,5,185,100,33,255,123,185,213,137]}},{"VILLAGE_ID":{"type":"Buffer","data":[9,79,60,37,5,44,79,134,167,0,158,105,165,32,201,151]},"CODE":"B0FFKIQMLL","NAME":"宏泰·香蒲湾","TYPE":"商务住宅;住宅区;住宅小区","ADDRESS":"丽水路与蒲安街交叉口北150米","X":122.76577,"Y":41.520812,"LNG":122.76577,"LAT":41.520812,"BOUNDS":null,"MEMO":null,"HOUSEHOLDS":null,"IS_VALID":1,"SOURCE":"高德","CREATE_DATE":"2019-12-11T02:09:27.000Z","COMMUNITY_ID":null,"COUNTY_ID":{"type":"Buffer","data":[92,13,10,232,224,167,66,5,185,100,33,255,123,185,213,137]}},{"VILLAGE_ID":{"type":"Buffer","data":[44,202,27,99,0,12,66,166,137,232,26,38,108,229,246,236]},"CODE":"B001817FK7","NAME":"玉龙水岸","TYPE":"商务住宅;住宅区;住宅小区","ADDRESS":"冷子堡镇富民路1号(邮局附近)","X":122.798248,"Y":41.698228,"LNG":122.798248,"LAT":41.698228,"BOUNDS":null,"MEMO":null,"HOUSEHOLDS":null,"IS_VALID":1,"SOURCE":"高德","CREATE_DATE":"2019-12-11T02:09:28.000Z","COMMUNITY_ID":null,"COUNTY_ID":{"type":"Buffer","data":[92,13,10,232,224,167,66,5,185,100,33,255,123,185,213,137]}},{"VILLAGE_ID":{"type":"Buffer","data":[86,81,218,47,77,2,69,2,184,81,30,112,181,123,8,139]},"CODE":"B001817FFT","NAME":"利民佳苑","TYPE":"商务住宅;住宅区;住宅小区","ADDRESS":"兴工巷54-1","X":122.742343,"Y":41.520922,"LNG":122.742343,"LAT":41.520922,"BOUNDS":null,"MEMO":null,"HOUSEHOLDS":null,"IS_VALID":1,"SOURCE":"高德","CREATE_DATE":"2019-12-11T02:09:28.000Z","COMMUNITY_ID":null,"COUNTY_ID":{"type":"Buffer","data":[92,13,10,232,224,167,66,5,185,100,33,255,123,185,213,137]}},{"VILLAGE_ID":{"type":"Buffer","data":[148,210,175,189,28,250,67,98,181,153,66,114,190,169,14,118]},"CODE":"B0FFL1IDT7","NAME":"财旺社区","TYPE":"商务住宅;住宅区;住宅小区","ADDRESS":"辽中镇政府路","X":122.723368,"Y":41.512710999999996,"LNG":122.723368,"LAT":41.512710999999996,"BOUNDS":null,"MEMO":null,"HOUSEHOLDS":null,"IS_VALID":1,"SOURCE":"高德","CREATE_DATE":"2019-12-11T02:09:28.000Z","COMMUNITY_ID":null,"COUNTY_ID":{"type":"Buffer","data":[92,13,10,232,224,167,66,5,185,100,33,255,123,185,213,137]}},{"VILLAGE_ID":{"type":"Buffer","data":[215,208,107,127,205,228,71,216,167,194,251,100,211,83,49,124]},"CODE":"B0FFKU08TM","NAME":"辽中县飞龙服装厂小区","TYPE":"商务住宅;住宅区;住宅小区","ADDRESS":"辽中区振兴旅馆东100米(北一路)","X":122.745869,"Y":41.511148,"LNG":122.745869,"LAT":41.511148,"BOUNDS":null,"MEMO":null,"HOUSEHOLDS":null,"IS_VALID":1,"SOURCE":"高德","CREATE_DATE":"2019-12-11T02:09:28.000Z","COMMUNITY_ID":null,"COUNTY_ID":{"type":"Buffer","data":[92,13,10,232,224,167,66,5,185,100,33,255,123,185,213,137]}},{"VILLAGE_ID":{"type":"Buffer","data":[157,127,111,40,38,67,75,173,163,193,183,204,153,244,73,230]},"CODE":"B0FFL9AWVL","NAME":"辽中区县社小区","TYPE":"商务住宅;住宅区;住宅小区","ADDRESS":"辽中区光明花园东南(豪林购物中心东北)","X":122.733429,"Y":41.513943999999995,"LNG":122.733429,"LAT":41.513943999999995,"BOUNDS":null,"MEMO":null,"HOUSEHOLDS":null,"IS_VALID":1,"SOURCE":"高德","CREATE_DATE":"2019-12-11T02:09:28.000Z","COMMUNITY_ID":null,"COUNTY_ID":{"type":"Buffer","data":[92,13,10,232,224,167,66,5,185,100,33,255,123,185,213,137]}},{"VILLAGE_ID":{"type":"Buffer","data":[231,248,124,45,218,115,71,214,129,79,237,174,179,13,103,60]},"CODE":"B0FFKTXAOA","NAME":"育才社区","TYPE":"商务住宅;住宅区;住宅小区","ADDRESS":"政府路190号附近","X":122.718196,"Y":41.513591,"LNG":122.718196,"LAT":41.513591,"BOUNDS":null,"MEMO":null,"HOUSEHOLDS":null,"IS_VALID":1,"SOURCE":"高德","CREATE_DATE":"2019-12-11T02:09:28.000Z","COMMUNITY_ID":null,"COUNTY_ID":{"type":"Buffer","data":[92,13,10,232,224,167,66,5,185,100,33,255,123,185,213,137]}},{"VILLAGE_ID":{"type":"Buffer","data":[62,115,74,170,16,182,75,121,132,142,82,45,87,12,133,171]},"CODE":"B0FFL2JZEA","NAME":"辽中区征稽所家属楼小区","TYPE":"商务住宅;住宅区;住宅小区","ADDRESS":"辽中区益嘉苑(北环路南)","X":122.736942,"Y":41.518394,"LNG":122.736942,"LAT":41.518394,"BOUNDS":null,"MEMO":null,"HOUSEHOLDS":null,"IS_VALID":1,"SOURCE":"高德","CREATE_DATE":"2019-12-11T02:09:28.000Z","COMMUNITY_ID":null,"COUNTY_ID":{"type":"Buffer","data":[92,13,10,232,224,167,66,5,185,100,33,255,123,185,213,137]}},{"VILLAGE_ID":{"type":"Buffer","data":[160,29,93,100,98,33,66,120,147,35,77,154,140,5,138,228]},"CODE":"B0FFKTX323","NAME":"辽中县防疫站家属楼小区","TYPE":"商务住宅;住宅区;住宅小区","ADDRESS":"北二路与商业街交叉口东南50米","X":122.735587,"Y":41.515515,"LNG":122.735587,"LAT":41.515515,"BOUNDS":null,"MEMO":null,"HOUSEHOLDS":null,"IS_VALID":1,"SOURCE":"高德","CREATE_DATE":"2019-12-11T02:09:28.000Z","COMMUNITY_ID":null,"COUNTY_ID":{"type":"Buffer","data":[92,13,10,232,224,167,66,5,185,100,33,255,123,185,213,137]}},{"VILLAGE_ID":{"type":"Buffer","data":[4,193,207,69,157,117,69,0,131,72,100,33,249,145,249,136]},"CODE":"B0FFKUU2EY","NAME":"辽中县政法委家属楼小区","TYPE":"商务住宅;住宅区;住宅小区","ADDRESS":"中心街58-4号附近","X":122.728375,"Y":41.515302999999996,"LNG":122.728375,"LAT":41.515302999999996,"BOUNDS":null,"MEMO":null,"HOUSEHOLDS":null,"IS_VALID":1,"SOURCE":"高德","CREATE_DATE":"2019-12-11T02:09:29.000Z","COMMUNITY_ID":null,"COUNTY_ID":{"type":"Buffer","data":[92,13,10,232,224,167,66,5,185,100,33,255,123,185,213,137]}},{"VILLAGE_ID":{"type":"Buffer","data":[170,223,196,87,124,51,79,179,187,4,244,209,143,130,138,130]},"CODE":"B00181BOF6","NAME":"龙城家园","TYPE":"商务住宅;住宅区;住宅小区","ADDRESS":"辽中区东环街西200米","X":122.73427699999999,"Y":41.50542,"LNG":122.73427699999999,"LAT":41.50542,"BOUNDS":null,"MEMO":null,"HOUSEHOLDS":null,"IS_VALID":1,"SOURCE":"高德","CREATE_DATE":"2019-12-11T02:09:29.000Z","COMMUNITY_ID":null,"COUNTY_ID":{"type":"Buffer","data":[92,13,10,232,224,167,66,5,185,100,33,255,123,185,213,137]}},{"VILLAGE_ID":{"type":"Buffer","data":[2,171,148,232,162,37,75,7,159,23,130,50,236,197,251,74]},"CODE":"B0018175GV","NAME":"亿甲府第","TYPE":"商务住宅;住宅区;住宅小区","ADDRESS":"海滨水新城蒲河街17号","X":122.772241,"Y":41.519498,"LNG":122.772241,"LAT":41.519498,"BOUNDS":null,"MEMO":null,"HOUSEHOLDS":null,"IS_VALID":1,"SOURCE":"高德","CREATE_DATE":"2019-12-11T02:09:29.000Z","COMMUNITY_ID":null,"COUNTY_ID":{"type":"Buffer","data":[92,13,10,232,224,167,66,5,185,100,33,255,123,185,213,137]}},{"VILLAGE_ID":{"type":"Buffer","data":[243,77,94,128,55,34,72,222,163,114,96,6,194,177,44,210]},"CODE":"B0FFJKG2CM","NAME":"辽东县石油公司家属楼小区","TYPE":"商务住宅;住宅区;住宅小区","ADDRESS":"辽中区建设街86-14号附近","X":122.727349,"Y":41.518330999999996,"LNG":122.727349,"LAT":41.518330999999996,"BOUNDS":null,"MEMO":null,"HOUSEHOLDS":null,"IS_VALID":1,"SOURCE":"高德","CREATE_DATE":"2019-12-11T02:09:29.000Z","COMMUNITY_ID":null,"COUNTY_ID":{"type":"Buffer","data":[92,13,10,232,224,167,66,5,185,100,33,255,123,185,213,137]}},{"VILLAGE_ID":{"type":"Buffer","data":[20,9,217,67,131,92,71,22,146,53,70,72,28,163,115,192]},"CODE":"B0FFHLWSS4","NAME":"辽中县板厂家属楼小区","TYPE":"商务住宅;住宅区;住宅小区","ADDRESS":"辽中区蒲西街道中心街靓景花园东北","X":122.73238,"Y":41.5217,"LNG":122.73238,"LAT":41.5217,"BOUNDS":null,"MEMO":null,"HOUSEHOLDS":null,"IS_VALID":1,"SOURCE":"高德","CREATE_DATE":"2019-12-11T02:09:29.000Z","COMMUNITY_ID":null,"COUNTY_ID":{"type":"Buffer","data":[92,13,10,232,224,167,66,5,185,100,33,255,123,185,213,137]}},{"VILLAGE_ID":{"type":"Buffer","data":[115,14,38,100,220,160,68,16,179,214,169,208,158,38,70,217]},"CODE":"B0FFHH7VT4","NAME":"环保家园新区","TYPE":"商务住宅;住宅区;住宅小区","ADDRESS":"辽中区南环路19号附近","X":122.726165,"Y":41.503765,"LNG":122.726165,"LAT":41.503765,"BOUNDS":null,"MEMO":null,"HOUSEHOLDS":null,"IS_VALID":1,"SOURCE":"高德","CREATE_DATE":"2019-12-11T02:09:29.000Z","COMMUNITY_ID":null,"COUNTY_ID":{"type":"Buffer","data":[92,13,10,232,224,167,66,5,185,100,33,255,123,185,213,137]}},{"VILLAGE_ID":{"type":"Buffer","data":[191,81,101,243,202,149,71,121,191,72,228,163,87,122,78,13]},"CODE":"B0FFHG1RJ1","NAME":"金水花园","TYPE":"商务住宅;住宅区;住宅小区","ADDRESS":"政府路227号","X":122.70607,"Y":41.515059,"LNG":122.70607,"LAT":41.515059,"BOUNDS":null,"MEMO":null,"HOUSEHOLDS":null,"IS_VALID":1,"SOURCE":"高德","CREATE_DATE":"2019-12-11T02:09:30.000Z","COMMUNITY_ID":null,"COUNTY_ID":{"type":"Buffer","data":[92,13,10,232,224,167,66,5,185,100,33,255,123,185,213,137]}},{"VILLAGE_ID":{"type":"Buffer","data":[242,143,249,220,235,233,68,229,159,32,188,249,168,131,206,16]},"CODE":"B0FFHJCEBK","NAME":"阳光家园东区","TYPE":"商务住宅;住宅区;住宅小区","ADDRESS":"东环街","X":122.742145,"Y":41.513441,"LNG":122.742145,"LAT":41.513441,"BOUNDS":null,"MEMO":null,"HOUSEHOLDS":null,"IS_VALID":1,"SOURCE":"高德","CREATE_DATE":"2019-12-11T02:09:30.000Z","COMMUNITY_ID":null,"COUNTY_ID":{"type":"Buffer","data":[92,13,10,232,224,167,66,5,185,100,33,255,123,185,213,137]}},{"VILLAGE_ID":{"type":"Buffer","data":[103,38,227,192,75,221,71,81,169,149,145,71,31,86,133,68]},"CODE":"B0FFHJBIRN","NAME":"辽中人大家属楼","TYPE":"商务住宅;住宅区;住宅小区","ADDRESS":"辽中区北一路与建设街交叉口西100米","X":122.724388,"Y":41.514894999999996,"LNG":122.724388,"LAT":41.514894999999996,"BOUNDS":null,"MEMO":null,"HOUSEHOLDS":null,"IS_VALID":1,"SOURCE":"高德","CREATE_DATE":"2019-12-11T02:09:30.000Z","COMMUNITY_ID":null,"COUNTY_ID":{"type":"Buffer","data":[92,13,10,232,224,167,66,5,185,100,33,255,123,185,213,137]}},{"VILLAGE_ID":{"type":"Buffer","data":[138,3,227,215,238,17,77,123,172,68,146,133,122,92,240,119]},"CODE":"B0FFI2KRZ3","NAME":"阳光东城","TYPE":"商务住宅;住宅区;住宅小区","ADDRESS":"辽中区东环街东100米","X":122.742075,"Y":41.513287999999996,"LNG":122.742075,"LAT":41.513287999999996,"BOUNDS":null,"MEMO":null,"HOUSEHOLDS":null,"IS_VALID":1,"SOURCE":"高德","CREATE_DATE":"2019-12-11T02:09:30.000Z","COMMUNITY_ID":null,"COUNTY_ID":{"type":"Buffer","data":[92,13,10,232,224,167,66,5,185,100,33,255,123,185,213,137]}},{"VILLAGE_ID":{"type":"Buffer","data":[35,31,119,166,215,72,72,39,155,209,18,53,221,67,21,182]},"CODE":"B0FFHP0VJ8","NAME":"满东养殖小区","TYPE":"商务住宅;住宅区;住宅小区","ADDRESS":"辽中区辽满线","X":122.635575,"Y":41.596059,"LNG":122.635575,"LAT":41.596059,"BOUNDS":null,"MEMO":null,"HOUSEHOLDS":null,"IS_VALID":1,"SOURCE":"高德","CREATE_DATE":"2019-12-11T02:09:30.000Z","COMMUNITY_ID":null,"COUNTY_ID":{"type":"Buffer","data":[92,13,10,232,224,167,66,5,185,100,33,255,123,185,213,137]}},{"VILLAGE_ID":{"type":"Buffer","data":[68,162,101,142,157,89,78,216,136,178,135,102,10,215,87,144]},"CODE":"B00180K7D6","NAME":"白楼家园","TYPE":"商务住宅;住宅区;住宅小区","ADDRESS":"政府路112号附近","X":122.734506,"Y":41.511421,"LNG":122.734506,"LAT":41.511421,"BOUNDS":null,"MEMO":null,"HOUSEHOLDS":null,"IS_VALID":1,"SOURCE":"高德","CREATE_DATE":"2019-12-11T02:09:30.000Z","COMMUNITY_ID":null,"COUNTY_ID":{"type":"Buffer","data":[92,13,10,232,224,167,66,5,185,100,33,255,123,185,213,137]}},{"VILLAGE_ID":{"type":"Buffer","data":[230,187,75,66,245,237,75,15,189,50,194,156,247,54,123,234]},"CODE":"B0FFH5Z207","NAME":"杨士岗政府家属楼","TYPE":"商务住宅;住宅区;住宅小区","ADDRESS":"杨士岗镇","X":122.989082,"Y":41.694123999999995,"LNG":122.989082,"LAT":41.694123999999995,"BOUNDS":null,"MEMO":null,"HOUSEHOLDS":null,"IS_VALID":1,"SOURCE":"高德","CREATE_DATE":"2019-12-11T02:09:30.000Z","COMMUNITY_ID":null,"COUNTY_ID":{"type":"Buffer","data":[92,13,10,232,224,167,66,5,185,100,33,255,123,185,213,137]}},{"VILLAGE_ID":{"type":"Buffer","data":[11,237,237,247,52,49,71,146,168,187,240,191,14,217,252,206]},"CODE":"B0FFHDME6H","NAME":"辽中县啤酒厂小区","TYPE":"商务住宅;住宅区;住宅小区","ADDRESS":"辽中区兴工巷56-1号附近","X":122.741518,"Y":41.520427999999995,"LNG":122.741518,"LAT":41.520427999999995,"BOUNDS":null,"MEMO":null,"HOUSEHOLDS":null,"IS_VALID":1,"SOURCE":"高德","CREATE_DATE":"2019-12-11T02:09:31.000Z","COMMUNITY_ID":null,"COUNTY_ID":{"type":"Buffer","data":[92,13,10,232,224,167,66,5,185,100,33,255,123,185,213,137]}},{"VILLAGE_ID":{"type":"Buffer","data":[30,246,244,87,185,109,64,16,179,242,209,0,248,22,87,163]},"CODE":"B0FFH5R8XQ","NAME":"金裕华城2期","TYPE":"商务住宅;住宅区;住宅小区","ADDRESS":"商业街","X":122.734445,"Y":41.517609,"LNG":122.734445,"LAT":41.517609,"BOUNDS":null,"MEMO":null,"HOUSEHOLDS":null,"IS_VALID":1,"SOURCE":"高德","CREATE_DATE":"2019-12-11T02:09:31.000Z","COMMUNITY_ID":null,"COUNTY_ID":{"type":"Buffer","data":[92,13,10,232,224,167,66,5,185,100,33,255,123,185,213,137]}},{"VILLAGE_ID":{"type":"Buffer","data":[223,104,73,103,84,207,78,182,130,100,166,209,241,63,17,198]},"CODE":"B0FFGZX6G6","NAME":"茨采4区","TYPE":"商务住宅;住宅区;住宅小区","ADDRESS":"曙光路与青龙台路交叉口东南100米","X":122.91119,"Y":41.522695,"LNG":122.91119,"LAT":41.522695,"BOUNDS":null,"MEMO":null,"HOUSEHOLDS":null,"IS_VALID":1,"SOURCE":"高德","CREATE_DATE":"2019-12-11T02:09:31.000Z","COMMUNITY_ID":null,"COUNTY_ID":{"type":"Buffer","data":[92,13,10,232,224,167,66,5,185,100,33,255,123,185,213,137]}},{"VILLAGE_ID":{"type":"Buffer","data":[109,141,20,105,145,216,79,17,178,65,95,66,214,255,133,32]},"CODE":"B0FFH216P1","NAME":"兴工社区","TYPE":"商务住宅;住宅区;住宅小区","ADDRESS":"辽中区新华街29号南60米","X":122.746403,"Y":41.517092,"LNG":122.746403,"LAT":41.517092,"BOUNDS":null,"MEMO":null,"HOUSEHOLDS":null,"IS_VALID":1,"SOURCE":"高德","CREATE_DATE":"2019-12-11T02:09:31.000Z","COMMUNITY_ID":null,"COUNTY_ID":{"type":"Buffer","data":[92,13,10,232,224,167,66,5,185,100,33,255,123,185,213,137]}},{"VILLAGE_ID":{"type":"Buffer","data":[75,150,0,115,85,114,75,138,171,229,141,5,151,97,110,114]},"CODE":"B0FFH2LCAA","NAME":"新华社区","TYPE":"商务住宅;住宅区;住宅小区","ADDRESS":"辽中区东环街与北环路交叉口东南150米","X":122.742505,"Y":41.515733999999995,"LNG":122.742505,"LAT":41.515733999999995,"BOUNDS":null,"MEMO":null,"HOUSEHOLDS":null,"IS_VALID":1,"SOURCE":"高德","CREATE_DATE":"2019-12-11T02:09:31.000Z","COMMUNITY_ID":null,"COUNTY_ID":{"type":"Buffer","data":[92,13,10,232,224,167,66,5,185,100,33,255,123,185,213,137]}},{"VILLAGE_ID":{"type":"Buffer","data":[238,222,62,57,130,201,78,8,154,2,180,55,25,188,180,162]},"CODE":"B0FFH233AD","NAME":"新兴社区","TYPE":"商务住宅;住宅区;住宅小区","ADDRESS":"辽中区振兴巷16号","X":122.73804799999999,"Y":41.517148,"LNG":122.73804799999999,"LAT":41.517148,"BOUNDS":null,"MEMO":null,"HOUSEHOLDS":null,"IS_VALID":1,"SOURCE":"高德","CREATE_DATE":"2019-12-11T02:09:31.000Z","COMMUNITY_ID":null,"COUNTY_ID":{"type":"Buffer","data":[92,13,10,232,224,167,66,5,185,100,33,255,123,185,213,137]}},{"VILLAGE_ID":{"type":"Buffer","data":[138,94,47,38,113,116,68,114,137,112,185,184,213,175,245,126]},"CODE":"B0FFH2FI68","NAME":"北环社区","TYPE":"商务住宅;住宅区;住宅小区","ADDRESS":"敬老巷与西环北街交叉口西南100米","X":122.727289,"Y":41.522541,"LNG":122.727289,"LAT":41.522541,"BOUNDS":null,"MEMO":null,"HOUSEHOLDS":null,"IS_VALID":1,"SOURCE":"高德","CREATE_DATE":"2019-12-11T02:09:31.000Z","COMMUNITY_ID":null,"COUNTY_ID":{"type":"Buffer","data":[92,13,10,232,224,167,66,5,185,100,33,255,123,185,213,137]}},{"VILLAGE_ID":{"type":"Buffer","data":[15,148,232,180,25,27,77,33,150,56,226,201,120,194,73,78]},"CODE":"B0FFH2KANB","NAME":"实验社区","TYPE":"商务住宅;住宅区;住宅小区","ADDRESS":"辽中区政府路256号","X":122.716409,"Y":41.514221,"LNG":122.716409,"LAT":41.514221,"BOUNDS":null,"MEMO":null,"HOUSEHOLDS":null,"IS_VALID":1,"SOURCE":"高德","CREATE_DATE":"2019-12-11T02:09:31.000Z","COMMUNITY_ID":null,"COUNTY_ID":{"type":"Buffer","data":[92,13,10,232,224,167,66,5,185,100,33,255,123,185,213,137]}},{"VILLAGE_ID":{"type":"Buffer","data":[225,180,103,0,95,45,73,192,146,218,85,24,113,191,21,253]},"CODE":"B0FFH29T7K","NAME":"辽中镇材旺社区","TYPE":"商务住宅;住宅区;住宅小区","ADDRESS":"辽中区辽中镇政府路","X":122.723214,"Y":41.512702999999995,"LNG":122.723214,"LAT":41.512702999999995,"BOUNDS":null,"MEMO":null,"HOUSEHOLDS":null,"IS_VALID":1,"SOURCE":"高德","CREATE_DATE":"2019-12-11T02:09:31.000Z","COMMUNITY_ID":null,"COUNTY_ID":{"type":"Buffer","data":[92,13,10,232,224,167,66,5,185,100,33,255,123,185,213,137]}},{"VILLAGE_ID":{"type":"Buffer","data":[211,24,93,40,219,69,74,136,153,22,179,238,224,235,171,22]},